internal_id;h3_index;latitude;longitude;name;tags;categories;place_id;address;timezone;temporarily_closed;permanently_closed;inside_of;price_level;contact_phone;contact_website;number_of_reviews;rating_stars;spending_time_min;spending_time_max;has_popularity;has_opening_hours;has_waiting_time
0x46b54a5a7d4ed1fd:0x932ad74a3f2e7e60;8f1181a1952d630;55.4103069;37.9024513;Moscow Domodedovo Mikhail Lomonosov Airport;{international_airport};{airport};ChIJ_dFOfVpKtUYRYH4uP0rXKpM;{Moscow Oblast,Russia};Europe/Moscow;false;false;;;+74959336666;https://www.dme.ru/;39373;4.2;;;true;false;true
0x487604e08939064d:0x59887c6e6e215e84;8f194ad1448cac9;51.4931466;-0.1375337;RE/MAX Central;{real_estate_agents,apartment_rental_agency,commercial_agent,property_investment,property_management_company};{service};ChIJTQY5ieAEdkgRhF4hbm58iFk;{85 Rochester Row,London,SW1P 1LJ,United Kingdom};Europe/London;false;false;;;+442076301099;http://www.remax.co.uk/central;111;4.5;;;false;true;false
0x48693091a4e3367d:0x4b05e135f5c25f78;8f195a413c021b2;51.674043;-4.908637;Pembroke;"";"";ChIJfTbjpJEwaUgReF_C9TXhBUs;{UK};Europe/London;false;false;;;;;;;;;false;false;false
0x47c5e37e3bef4933:0xb5e624f5197f65bf;8f1968269bb56cd;52.3897001;4.8494499;Black Cat Theatre;{childrens_theater,music_school};{art_culture,education};ChIJM0nvO37jxUcRv2V_GfUk5rU;{Schakelstraat 2,1014 AW Amsterdam,Netherlands};Europe/Amsterdam;false;false;;;+31638066480;http://blackcattheatre.nl/;60;4.9;;;true;false;true
0x47c0c4973b395b15:0xbc45fd9317e81195;8f1fa096b432218;50.9702469;5.6801788;GO! basisschool voor buitengewoon onderwijs Mikado;{elementary_school};{misc};ChIJFVs5O5fEwEcRlRHoF5P9Rbw;{Bosweg 71,3630 Maasmechelen,Belgium};Europe/Brussels;false;false;;;+3289760277;http://www.bsbomikado.be/;5;4.8;;;false;true;false
0x8816d3501297c131:0x3c9f57ffc1d42ba5;8f274b46e3b30b6;41.7058097;-86.2350201;Notre Dame Security Police;{police_department};{public_service};ChIJMcGXElDTFogRpSvUwf9Xnzw;{Hammes Mowbray Hall,Notre Dame, IN 46556,United States};America/Indianapolis;false;false;0x8816cd576bfc35cd:0x5a2be3cb659fd9b7;;+15746315555;http://ndsp.nd.edu/;;;;;false;false;false
0x808f80b183b3d067:0x3eaabdb7467e9240;8f28308101a9af6;37.8054809;-122.2712195;Caffe Teatro;{cafe,deli,sandwich_shop};{food,cafe};ChIJZ9Czg7GAj4ARQJJ-Rre9qj4;{300 Frank H. Ogawa Plaza #130,Oakland, CA 94612,United States};America/Los_Angeles;false;false;;1;+15102678970;http://caffeteatrooakland.com/;17;4.3;;;true;true;true
0x808581108cee81cb:0x34e1a2ad5be73318;8f28308280d1cdc;37.7771959;-122.4173361;110 Web Design;{software_company};{service};ChIJy4HujBCBhYARGDPnW62i4TQ;{1390 Market St Suite 200,San Francisco, CA 94102};America/Los_Angeles;false;false;0x8085809c0c15cadf:0xcbbbf29fd9e265a4;;+18552400930;https://110webdesign.com/;;;;;false;true;false
0x8085809b49ae72d5:0xe8cfb60d1ebe7f27;8f28308287accdc;37.7795826;-122.4129553;A.C.T.'s Strand Theater & Cafe;{performing_arts_theater};{art_culture};ChIJ1XKuSZuAhYARJ3--Hg22z-g;{1127 Market St,San Francisco, CA 94103,United States};America/Los_Angeles;true;false;;;+14157492228;http://www.act-sf.org/strand;212;4.6;;;false;false;false
0x808580c9dbbd6fcf:0x987a2bfedc89c62;8f283082909c4f4;37.7854649;-122.4393145;Lancellotti Paola;{doctor};{medical};ChIJz2-928mAhYARYpzI7b-ihwk;{2356 Sutter St # 6,San Francisco, CA 94115,United States};America/Los_Angeles;false;false;;;+14158857788;;;;;;false;false;false
0x808581f215b60ebb:0x235abe53a6a07df9;8f283082a22a98b;37.7921379;-122.4028277;315 MONTGOMERY STREET;{business_center};{office};ChIJuw62FfKBhYAR-X2gplO-WiM;{315 Montgomery St,San Francisco, CA 94104};America/Los_Angeles;false;false;;;+12015871000;https://www.vno.com/office/property/315-montgomery-street/3311896/landing;;;;;false;false;false
0x808580884e6635b5:0xd24ceeb04cda0dc9;8f283082a32b92b;37.789077;-122.4032362;Consulate of France;{foreign_consulate};{misc};ChIJtTVmToiAhYARyQ3aTLDuTNI;{88 Kearny St #600,San Francisco, CA 94108};America/Los_Angeles;false;false;0x8085808836557eb5:0xcf349ea3bd316b6b;;+16502853223;http://consulfrance-sanfrancisco.org/;84;3.8;;;false;false;false
0x80858066a8b9520d:0x47689ad2e32a0afe;8f283082a759cec;37.7942072;-122.3947852;One Market Restaurant/Mark 'n Mike's NY Style Deli;{american_restaurant,bar,restaurant};{food,drinks};ChIJDVK5qGaAhYAR_goq49KaaEc;{1 Market St,San Francisco, CA 94105,United States};America/Los_Angeles;false;false;0x808580643c3e2b6b:0xdfaed86e138e4f01;3;+14157775577;http://www.onemarket.com/;773;4.3;;;true;true;true
0x808f7fd5ab1c02bf:0xf614aab9f5507597;8f283082a8320e9;37.7777954;-122.3959876;4th St;"";"";ChIJvwIcq9V_j4ARl3VQ9bmqFPY;{San Francisco, CA};America/Los_Angeles;false;false;;;;;;;;;false;false;false
0x8085808679110299:0x2607188167b0f1ef;8f283082aa2d029;37.7835369;-122.4068652;Hotel Zetta San Francisco, a Viceroy Urban Retreat;{hotel,event_venue};{tourism,art_culture};ChIJmQIReYaAhYAR7_GwZ4EYByY;{55 5th St,San Francisco, CA 94103};America/Los_Angeles;false;false;;;+14155438555;https://www.viceroyhotelsandresorts.com/zetta?chebs=gl-zetta;785;4.4;;;false;false;false
0x8085808929ede405:0x572b701792d36541;8f283082aac9d55;37.7882001;-122.4065056;Gucci;{boutique,clothing_store,leather_goods_store,mens_clothing_store,womens_clothing_store};{shopping};ChIJBeTtKYmAhYARQWXTkhdwK1c;{240 Stockton St,San Francisco, CA 94108,United States};America/Los_Angeles;false;false;;;+14153922808;https://www.gucci.com/us/en/store/240-stockton-street?utm_source=yext_us&utm_medium=storemarketing&utm_campaign=retail_storepages_marcomm&utm_content=23017_bookapp&y_source=1_MTI0NDEyNi03MTUtbG9jYXRpb24uZ29vZ2xlX3dlYnNpdGVfb3ZlcnJpZGU%3D;180;4.2;;;true;true;true
0x808f7fd7c4cdb4bb:0x5848b6659c59c9de;8f283082ad49099;37.7799247;-122.3919823;148 PRINT;{print_shop};{shopping};ChIJu7TNxNd_j4AR3slZnGW2SFg;{148 Townsend St,San Francisco, CA 94107};America/Los_Angeles;false;false;;;+14157304634;http://148print.com/;4;5;;;false;true;false
0x808581737ddbce35:0xaca3debf3becf9e4;8f283082b6ddd71;37.8079848;-122.4167163;Neyborly;{event_venue};{art_culture};ChIJNc7bfXOBhYAR5PnsO7_eo6w;{269 Jefferson St,San Francisco, CA 94133};America/Los_Angeles;false;false;;;+15107066510;http://www.neyborly.com/;;;;;false;true;false
0x80858500ed50deb3:0x9e6de65d14afcc75;8f2830842c69ca1;37.8634613;-122.4956896;US Army Corps of Engineers Bay Model Visitor Center;{visitor_center,federal_government_office,tourist_attraction};{administration,tourism};ChIJs95Q7QCFhYARdcyvFF3mbZ4;{2100 Bridgeway,Sausalito, CA 94965};America/Los_Angeles;false;false;;;+14152893007;https://www.spn.usace.army.mil/Missions/Recreation/Bay-Model-Visitor-Center/;84;4.8;20;90;true;true;true
0x80857e9d8d0503f7:0x737666a7b46dddb1;8f28308a9c81686;37.8703042;-122.2660841;Cinnaholic;{bakery,dessert_shop};{cafe};ChIJ9wMFjZ1-hYARsd1ttKdmdnM;{2132 Oxford St,Berkeley, CA 94704,United States};America/Los_Angeles;false;false;0x80857ffd4777500b:0x665875191012ef64;2;+15106478684;https://www.cinnaholicberkeley.com/;448;4.5;15;15;true;true;true
0x808f9e875b6b5515:0x77313dd482614a13;8f283093583665b;37.5708848;-122.3101534;Glamour hair and nails;{hair_salon,beauty_salon,nail_salon};{beauty};ChIJFVVrW4eej4ARE0phgtQ9MXc;{560 S Norfolk St,San Mateo, CA 94401,United States};America/Los_Angeles;false;false;0x808f9e875162a5bf:0x229c2b4ee5fdce83;;+16503435575;;25;3.2;;;false;true;false
0x808561c18242f01b:0x5733ef6fa6df1bc3;8f2830c658d3b75;37.8971443;-122.0582731;Topshop;{womens_clothing_store};{shopping};ChIJG_BCgsFhhYARwxvfpm_vM1c;{Nordstrom 421,1200,Broadway Plaza,Walnut Creek, CA 94596,United States};America/Los_Angeles;false;false;0x808561c186ad7ea7:0x53ebf89f4210d023;;;https://us.topshop.com/store-locator?country=United+States;;;;;false;true;false
0x808fcb67fe995555:0xf96183e928caa7bc;8f2834714b2456d;37.3326271;-121.9129316;SDC Energy;{consultant};{service};ChIJVVWZ_mfLj4ARvKfKKOmDYfk;{1346 The Alameda,San Jose, CA 95126,United States};America/Los_Angeles;false;false;0x808fcb67911896bd:0x6895b132b8c4fc2a;;+14087234797;https://www.sdc-energy.com/contact/;;;;;false;false;false
0x548f738bddb06171:0x38e8f3741ebb48ed;8f28d1aaca8b359;48.4284207;-123.3656444;Victoria;"";"";ChIJcWGw3Ytzj1QR7Ui7HnTz6Dg;{British Columbia,Canada};America/Vancouver;false;false;;;;http://www.victoria.ca/;;;;;false;false;false
0x80dd4ae5d53cf7db:0xc37525eaf8510bc8;8f29a560bb88c63;33.8414802;-118.3211212;Strand Brewing Co;{brewery};{drinks};ChIJ2_c81eVK3YARyAtR-OoldcM;{2201 Dominguez St,Torrance, CA 90501,United States};America/Los_Angeles;false;false;;;+13105170900;http://www.strandbrewing.com/;187;4.7;;;true;true;true
0x89e3774849653997:0x901bed94ded57df2;8f2a30675270753;42.3781475;-71.1064903;The Kebab Factory - An Indian Bistro;{indian_restaurant,buffet_restaurant,fine_dining_restaurant,indian_takeaway,middle_eastern_restaurant,pakistani_restaurant,punjabi_restaurant};{food};ChIJlzllSUh344kR8n3V3pTtG5A;{414 Washington St,Somerville, MA 02143,United States};America/New_York;false;false;;2;+16173544996;https://www.thekebabfactory.net/;295;4;15;90;true;true;true
0x88388a870b71620b:0xe94a08098b3ebeca;8f2a95633d15461;40.0526485;-82.9151467;L'OCCITANE EN PROVENCE;{cosmetics_store,beauty_supply_store,gift_shop};{shopping,beauty};ChIJC2JxC4eKOIgRyr4-iwkISuk;{4093 The Strand E,Columbus, OH 43219,United States};America/New_York;false;false;0x88388a8785dedb1b:0x6e75eea84e4fb090;;+16144162082;https://www.loccitane.com/on/demandware.store/Sites-OCC_US-Site/en_US/Stores-ShowStore?id=04OCST089&y_source=1_MTM3MjIxMzUtNzE1LWxvY2F0aW9uLndlYnNpdGU%3D;26;4.7;;;false;true;false
0x130e4c37de54f917:0xebd3bfa3a1171244;8f3f304002087a1;35.966132;14.356108;Seashell Dive Centre;{diving_center,scuba_instructor};{sport,service};ChIJF_lU3jdMDhMRRBIXoaO_0-s;{Triq Il-Marfa,Mellieha,Malta};Europe/Malta;false;false;;;+35621521062;http://www.seashelldivingmalta.com/;79;4.8;20;180;true;true;true
0x130e4c37e0d16561:0xfee8232fd293ec6b;8f3f30400208b8d;35.9664072;14.3562539;Tunnynet Slipway;{boat_ramp};{misc};ChIJYWXR4DdMDhMRa-yT0i8j6P4;{X984+HG6,Mellieha,Malta};Europe/Malta;false;false;;;;;1;3;;;false;false;false
0x130e4c4426621fad:0x4969909a5bace8ed;8f3f30400a86334;35.972263;14.349784;Munchies Mellieha Bay;{mediterranean_restaurant,bar,ice_cream_shop,lido,lounge,pizza_delivery_service,pizza_restaurant,seafood_restaurant};{drinks,food,cafe,recreation};ChIJrR9iJkRMDhMR7eisW5qQaUk;{Triq il-Marfa, Ghadira,Il-Mellieħa,Malta};Europe/Malta;false;false;;2;+35621576416;https://www.munchiesmelliehabay.com/;2126;4.4;;;true;true;true
0x130e4c3389cba067:0x63e7163d69611b60;8f3f30401490555;35.9602308;14.3618795;Our Lady Of The Grotto;{shrine,tourist_attraction};{tourism};ChIJZ6DLiTNMDhMRYBthaT0W52M;{Triq Il-Marfa,Mellieha,Malta};Europe/Malta;false;false;;;;;28;4.5;;;true;true;true
0x130e4c2f67dbf1d9:0x71f12a3da422fd0;8f3f304017309a8;35.965067;14.3718008;19 Triq J.Kepler;"";"";ChIJ2fHbZy9MDhMR0C9C2qMSHwc;{Il-Mellieħa,Malta};Europe/Malta;false;false;;;;;;;;;false;false;false
0x130e4ff51ccf8015:0x3795c815687af4ee;8f3f3040325b2d6;35.9453466;14.3750368;Kappella ta' Sant'Anna;{chapel};{religious_building};ChIJFYDPHPVPDhMR7vR6aBXIlTc;{W9WG+42M,St Paul's Bay,Malta};Europe/Malta;false;false;;;;;2;4.5;;;false;false;false
0x130e4c335c93e933:0xaad87a3935f057ae;8f3f3040384a55b;35.9573137;14.3623267;Bank of Valletta p.l.c. - Mellieha Branch;{bank};{service};ChIJM-mTXDNMDhMRrlfwNTl62Ko;{MLH 1025,34 Triq Gorg Borg Olivier,Mellieha,Malta};Europe/Malta;false;false;;;+35621312020;http://www.bov.com/;11;1.8;10;45;true;true;true
0x130e4c34eabc0e6f:0x6f763b4de61e52e1;8f3f30403855d61;35.9578748;14.3601887;Dar il-Madonna tal-Mellieha;{assisted_living_facility};{apartment};ChIJbw686jRMDhMR4VIe5k07dm8;{Triq il-Qalb Imqaddsa,Mellieha,Malta};Europe/Malta;false;false;;;+35621524444;http://www.caremalta.com/CareMalta/OurHomes/PPP/DarilMadonnatalMellieha/tabid/809/Default.aspx;6;5;;;false;false;false
0x130e4c34a9a3e5ff:0xc3855658c36b5d8a;8f3f304038586a4;35.9567567;14.3615655;Post Office;{post_office};{service};ChIJ_-WjqTRMDhMRil1rw1hWhcM;{Triq Il-Mitħna l-Ġdida,Mellieha,Malta};Europe/Malta;false;false;;;+35621224421;http://www.maltapost.com/;7;2.1;15;15;true;true;true
0x130e4c34a8a5f917:0xc11336802c51b826;8f3f30403858cc9;35.956952;14.361445;Start Technology;{store};{shopping};ChIJF_mlqDRMDhMRJrhRLIA2E8E;{108 Triq Il-Mitħna l-Ġdida,Mellieha MLH 1106,Malta};Europe/Malta;false;false;;;+35627888765;https://m.facebook.com/startmalta/;34;4.7;;;false;true;false
0x130e4c34a15bc647:0x93622a7e50f5fb5d;8f3f3040385c083;35.9572979;14.3612298;Mellieħa Local Council;{local_government_office};{office};ChIJR8ZboTRMDhMRXfv1UH4qYpM;{Triq il-Madonna ta' Fatima,Mellieha,Malta};Europe/Malta;false;false;;;+35621521333;http://www.mellieha.gov.mt/;3;4.3;;;false;true;false
0x130e4c3411d54475:0xb2e34284c2090fb4;8f3f30403948258;35.9605866;14.360826;Parish Church of Mellieha;{catholic_church,tourist_attraction};{tourism,religious_building};ChIJdUTVETRMDhMRtA8JwoRC47I;{Misraħ il-Parroċċa,Mellieha,Malta};Europe/Malta;false;false;;;+35621523449;;918;4.6;;;false;false;false
0x130e4c341df9485d:0xbad01379001d66a0;8f3f3040396bb65;35.961708;14.3606865;Sea View Cafe/Bar;{cafe,bar,cafeteria,cocktail_bar};{food,cafe,drinks};ChIJXUj5HTRMDhMRoGYdAHkT0Lo;{Triq Salvinu Vella,Mellieha,Malta};Europe/Malta;false;false;;2;+35627042230;https://seaviewcafemellieha.business.site/;1766;4.5;30;90;true;true;true
0x130e4dd2ad1e1b57:0xad36227f0ebeea13;8f3f30403a017b3;35.955394;14.3681;Cross Keys;{restaurant,maltese_restaurant,pizza_restaurant};{food};ChIJVxserdJNDhMRE-q-Dn8iNq0;{5 Cross Square,Mellieha,Malta};Europe/Malta;false;false;;2;+35621523744;http://www.crosskeysmalta.com/;494;4.3;;;false;true;false
0x130e4c2d331ba895:0xd0c669819d0dffcc;8f3f30403a09916;35.9554359;14.3695217;Mellieha Judo;{sports_complex};{sport};ChIJlagbMy1MDhMRzP8NnYFpxtA;{X949+5RC,Mellieha,Malta};Europe/Malta;false;false;;;;;7;4.9;;;false;false;false
0x130e4c2d33591391:0xd110befcd19f5801;8f3f30403a0d654;35.9554425;14.3694458;Tomorrow's Home Ltd.;{home_goods_store};{wholesaler};ChIJkRNZMy1MDhMRAVif0fy-ENE;{222 Triq Il-Kbira,Mellieha,Malta};Europe/Malta;false;false;;;+35621520096;;18;4.7;;;false;true;false
0x130e4dd2b3523d5d:0x98eed2ed38dcb1ec;8f3f30403a5189b;35.9549524;14.3710693;Welbee's Supermarket;{supermarket,butcher_shop,gourmet_grocery_store,ham_shop,home_goods_store,organic_food_store,produce_market};{wholesaler,groceries};ChIJXT1Ss9JNDhMR7LHcOO3S7pg;{Triq Il-Kbira,Mellieha MLH 2317,Malta};Europe/Malta;false;false;;;+35621523192;https://welbees.mt/;556;4.2;15;45;true;true;true
0x130e4dd333ef6553:0xb516013f36bca752;8f3f30403a5356d;35.9544118;14.3707754;Green Valley Supermarket;{supermarket};{groceries};ChIJU2XvM9NNDhMRUqe8Nj8BFrU;{Triq Il-Fortizza,Mellieha,Malta};Europe/Malta;false;false;;;+35621520080;;141;4.6;15;15;true;true;true
0x130e4c2cd3aef931:0x6bf0542bf7496a83;8f3f30403a55a74;35.9554163;14.3710416;Petrol Station;{gas_station};{automobile};ChIJMfmu0yxMDhMRg2pJ9ytU8Gs;{268 Triq Il-Kbira,Mellieha,Malta};Europe/Malta;false;false;;;+35621573918;;73;3.9;;;false;true;false
0x130e4c2d5568f0cb:0xbc4915987722f720;8f3f30403a724de;35.9554448;14.3698105;Miracle Foods Mellieha;{frozen_food_store,food_products_supplier};{wholesaler,groceries};ChIJy_BoVS1MDhMRIPcid5gVSbw;{Triq Il-Kbira,Mellieha,Malta};Europe/Malta;false;false;;;+35625582410;http://www.miraclefoods.com.mt/;26;4.7;15;15;true;true;true
0x130e4d615ec07bb5:0x28442b0a5d68417f;8f3f30403ba0500;35.9565392;14.3628625;Bouquet Garni;{restaurant};{food};ChIJtXvAXmFNDhMRf0FoXQorRCg;{Triq Gorg Borg Olivier,Mellieha,Malta};Europe/Malta;false;false;;;+35699425211;;;;;;false;false;false
0x130e4c334c62e6dd:0xff8b437d53ba1d70;8f3f30403ba28e2;35.9563193;14.3627733;Schere Complex;{beauty_salon,barber_shop,cafeteria,hair_salon,nail_salon,spa};{beauty,food};ChIJ3eZiTDNMDhMRcB26U31Di_8;{Triq Sant' Anna,Mellieha,Malta};Europe/Malta;false;false;;;+35621522904;https://scherecomplex.com/;166;4.6;;;true;true;true
0x130e4d05cfd7b10f:0x23723d70357b62c5;8f3f30403bac0e6;35.9566287;14.3642794;Citadel Insurance plc;{insurance_company};{service};ChIJD7HXzwVNDhMRxWJ7NXA9ciM;{Triq Tas-Salib,Mellieha,Malta};Europe/Malta;false;false;;;+35621525232;https://www.citadelplc.com/;1;5;;;false;true;false
0x130e4c32e1a30159:0xebd0a55dfb4557b0;8f3f30403c2aad2;35.9523529;14.3500975;Mellieha;"";"";ChIJWQGj4TJMDhMRsFdF-12l0Os;{Malta};Europe/Malta;false;false;;;;;;;;;false;false;false
0x130e4c89f42d38fb:0xae0fae075a74fbfe;8f3f304040e3a5e;35.986924;14.3311782;Paradise Diving Malta;{dive_shop,scuba_instructor};{shopping,service};ChIJ-zgt9IlMDhMR_vt0WgeuD64;{Paradise Bay Resort Hotel,Paradise Diving Islands Edge Lido,Il-Mellieħa,Malta};Europe/Malta;false;false;0x130e4c8909044e89:0x7a1a918b1ac728cb;;+35677776665;http://www.paradisediving.com/;95;4.5;;;true;true;true
0x130e4c641c37e851:0x521a52c83ed0528e;8f3f3040421c12b;35.9855772;14.3392797;MUSEUM Dar Betsajda;{place_of_worship};{misc};ChIJUeg3HGRMDhMRjlLQPshSGlI;{Triq Il-Marfa,Il-Mellieħa,Malta};Europe/Malta;false;false;;;;;;;;;false;false;false
0x130e4c0dbd4161b9:0x4d149349a901fc3b;8f3f3040500d619;35.9899119;14.3596271;Tortuga Beach;{lido,water_sports_equipment_rental_service};{recreation};ChIJuWFBvQ1MDhMRO_wBqUmTFE0;{Mellieha,Malta};Europe/Malta;false;false;;;+35621522220;http://tortuga.mt/;322;4.3;;;true;true;true
0x130e4ef8e29d4951:0x61ebafaf4c3ef425;8f3f304080019b2;35.9520277;14.4179494;Ristorante Pizzeria La Sorpresa;{pizza_restaurant,restaurant};{food};ChIJUUmd4vhODhMRJfQ-TK-v62E;{Tourist St,St Paul's Bay,Malta};Europe/Malta;false;false;;2;+35621577301;http://www.lasorpresarestaurant.com/;378;4.5;90;150;true;true;true
0x130e4ef86062c03f:0xb4432304c32e2ad3;8f3f30408011556;35.9508941;14.4168116;Munchies Snack Bar;{bar};{drinks};ChIJP8BiYPhODhMR0youwwQjQ7Q;{Tourist Street,St Paul's Bay,Malta};Europe/Malta;false;false;;1;+35627571246;;204;4.5;;;true;true;true
0x130e4ef9229d4033:0x4604cde135a4c898;8f3f3040802ab01;35.9524697;14.4185225;The George;{pub,cafe,fine_dining_restaurant};{food,cafe,drinks};ChIJM0CdIvlODhMRmMikNeHNBEY;{Triq It-Turisti,Qawra, San Pawl IL-Bahar SPB 1025,Malta};Europe/Malta;false;false;;;+35621582337;;20;4.7;;;false;true;false
0x130e4ef939ddb53d:0x1e3fc59880ade56e;8f3f3040802d2e1;35.9530543;14.4192114;Welbee's Supermarket;{supermarket,sushi_restaurant};{food,groceries};ChIJPbXdOflODhMRbuWtgJjFPx4;{Triq Il-Merluzz,St. Paul's Bay SPB 1453,Malta};Europe/Malta;false;false;;;+35621581772;https://welbees.mt/;1308;4.2;20;20;true;true;true
0x130e4eff6d36c7f1:0xcae82007b0e874b2;8f3f3040805a2d3;35.9502144;14.4219787;Hotel Soreda;{hotel};{tourism};ChIJ8cc2bf9ODhMRsnTosAcg6Mo;{Il 22 Triq Andrew Cunningham Saint Paul's Bay,1744,Malta};Europe/Malta;false;false;;;+35621576267;http://www.soredahotelmalta.com/;1492;3.9;;;false;false;false
0x130e4efeacf38dfd:0xf75291cdd87456dc;8f3f3040815cb5c;35.9541647;14.4197187;Qawra;"";"";ChIJ_Y3zrP5ODhMR3FZ02M2RUvc;{St Paul's Bay,Malta};Europe/Malta;false;false;;;;;;;;;false;false;false
0x130e4ef953694989:0x28a62d013df9e16f;8f3f3040815d32e;35.9540451;14.4202781;Park Lane Boutique Aparthotel;{hotel,apartment_complex};{tourism,apartment};ChIJiUlpU_lODhMRb-H5PQEtpig;{Maskli Street Qawra St Paul's Bay MT SPB,1480,San Pawl il-Baħar,Malta};Europe/Malta;false;false;;;+35621577319;http://www.parklanemalta.com/;209;4.7;;;false;false;false
0x130e4ef78da97e95:0xb5b765554150b916;8f3f304081839a4;35.951465;14.413542;Choco Kebab Cafe / Vegan bar;{coffee_shop};{cafe};ChIJlX6pjfdODhMRFrlQQVVlt7U;{San Anthony street 228 Bugibba,SPB 2659,Malta};Europe/Malta;true;false;;1;+35679455214;https://www.facebook.com/CHOCO-KEBAB-MALTA-608611245999877/;161;4.6;;;false;false;false
0x130e4ef81a2c1967:0xea4a65879009c93f;8f3f3040818a76e;35.950785;14.4146968;The Donut Factory;{coffee_shop,donut_shop,salad_shop};{food,cafe,groceries};ChIJZxksGvhODhMRP8kJkIdlSuo;{85 Triq il-Halel,Bugibba SPB 2529,Malta};Europe/Malta;false;false;;;+35627884001;http://www.thedonutfactory.com/;221;4.3;25;60;true;true;true
0x130e4ef7c2bf4e6d:0xb9b07b521633437e;8f3f30408191c84;35.9508033;14.4125685;Whyte Harte Bar;{bar};{drinks};ChIJbU6_wvdODhMRfkMzFlJ7sLk;{Gandoffli,St Paul's Bay,Malta};Europe/Malta;false;false;;1;+35699885087;;172;4.5;;;true;true;true
0x130e4ef7fe8ea9e7:0x9aaab4c79172716c;8f3f3040819b113;35.9500548;14.4139785;Compass Car Hire;{car_rental_agency,car_leasing_service,taxi_service};{automobile,service};ChIJ56mO_vdODhMRbHFykce0qpo;{Triq Il Qroll,Bugibba SPB 2550,Malta};Europe/Malta;false;false;;;+35621571316;http://compasscarhire.com/;168;4.7;;;true;true;true
0x130e4ef7b4ec9d25:0x848879590343bcb7;8f3f304081b0483;35.9518203;14.4116888;Trattoria 'a Lanterna,specialità Liguri,cucina casalinga.;{restaurant};{food};ChIJJZ3stPdODhMRt7xDA1l5iIQ;{160 triq,San Xmun,San Pawl il-Baħar SPB 0001,Malta};Europe/Malta;false;false;;;+35679215474;https://www.facebook.com/Trattoria-a-Lanterna-216088982216659/;277;4.7;60;120;false;true;false
0x130e4efe39e7ec9f:0x3f5062b49039a1ca;8f3f30408312142;35.9509226;14.4244155;Zigumar Restaurant;{restaurant};{food};ChIJn-znOf5ODhMRyqE5kLRiUD8;{Triq Il-Luzzu,St Paul's Bay,Malta};Europe/Malta;false;false;;;+35699064380;https://www.facebook.com/pg/zigumarrestaurant;359;4.6;;;true;true;true
0x130e4fef60fac185:0xa5513672e8caed8;8f3f3040842b592;35.9460013;14.4106641;Nutrition House;{health_food_store};{groceries};ChIJhcH6YO9PDhMR2K6MLmcTVQo;{Triq il-Lampuki,St Paul's Bay,Malta};Europe/Malta;false;false;;;+35679324905;https://www.facebook.com/Nutrition-House-Malta-196871143687913/;4;4.8;;;false;false;false
0x130e4f6ee5a6f2df:0x4889a30dd6ee8c0c;8f3f3040850378d;35.9479145;14.4076053;The Charity Shop in aid of Hospice Malta;{charity};{misc};ChIJ3_Km5W5PDhMRDIzu1g2jiUg;{Triq Il-Villeggjatura San Pawl il-Baħar,SPB 3201,Malta};Europe/Malta;false;false;;;;https://the-charity-shop-in-aid-of-hospice-malta.business.site/?utm_source=gmb&utm_medium=referral;;;;;false;true;false
0x130e4e5ee87159a1:0x98cd88e5932acb36;8f3f304085116a6;35.94743;14.406721;Gandhi Tandoori;{indian_restaurant};{food};ChIJoVlx6F5ODhMRNssqk-WIzZg;{Mosta Road,St Paul's Bay,Malta};Europe/Malta;false;false;;2;+35621572260;http://gandhi-tandoori.com/;634;4.4;60;120;true;true;true
0x130e4e592cef22ad:0x1a5bafef8f46c4f9;8f3f30408519b54;35.947464;14.40841;Alpha School of English;{english_language_school,adult_education_school,student_housing_center};{education};ChIJrSLvLFlODhMR-cRGj--vWxo;{Triq l-Arznell,St Paul's Bay,Malta};Europe/Malta;false;false;;;+35621581474;http://www.alphaschoolmalta.com/;42;4.6;;;false;true;false
0x130e4e5ec9c89439:0xe48ebc5a03239d52;8f3f3040851b0b1;35.946806;14.407898;The Donut Factory;{coffee_shop,bakery,dessert_restaurant,donut_shop,salad_shop};{food,cafe,groceries};ChIJOZTIyV5ODhMRUp0jA1q8juQ;{Mosta Rd San Pawl il-Baħar,SPB 3111,Malta};Europe/Malta;false;false;;2;+35627884444;http://www.thedonutfactory.com/;384;4.4;15;45;true;true;true
0x130e4e5edce6663f:0x4dc54329c9358440;8f3f3040851c593;35.9475132;14.4070542;Fins & Gills Fish And Chips;{fast_food_restaurant};{food};ChIJP2bm3F5ODhMRQIQ1ySlDxU0;{Triq Toni Bajada,St Paul's Bay,Malta};Europe/Malta;false;false;;;+35627139297;https://www.facebook.com/finsandgillsfishandchips/;494;4.7;20;20;true;true;true
0x130e4e585638c67f:0xff9b0a39dab8684e;8f3f304085426c8;35.948004;14.411285;EuroSaver;{supermarket,bakery,convenience_store,dairy_store,fruit_and_vegetable_store,grocery_store,tobacco_shop,wine_store};{shopping,cafe,groceries};ChIJf8Y4VlhODhMRTmi42jkKm_8;{Triq Censu Tanti,San Pawl il-Baħar SPB 3020,Malta};Europe/Malta;false;false;;;+35677259593;https://eurosaver.business.site/;78;3.4;15;15;true;true;true
0x130e4e58215fee53:0xbaaa2dc97cbf5e9b;8f3f30408549b6b;35.9485395;14.4137553;The Brothers;{bulgarian_restaurant,restaurant};{food};ChIJU-5fIVhODhMRm16_fMktqro;{Triq Il-Korp Tal-Pijunieri,St Paul's Bay,Malta};Europe/Malta;false;false;;2;+35699058829;;506;4.6;60;150;true;true;true
0x130e4e5852d850f7:0x966200d4f6e7c3cd;8f3f304085588f3;35.947556;14.4117558;Oriana Hotel;{hotel};{tourism};ChIJ91DYUlhODhMRzcPn9tQAYpY;{Triq C.Tanti,St Paul's Bay,Malta};Europe/Malta;false;false;;;+35621576128;http://www.orianahotel.com/;289;3.9;;;false;false;false
0x130e4f91fe6e6c0f:0x1dfcb48c25acb71c;8f3f304085ab9a8;35.9461749;14.4066961;B. Grima & Sons Ltd.;{line_marking_service,equipment_supplier,road_safety_town,sign_shop};{shopping,wholesaler,service};ChIJD2xu_pFPDhMRHLesJYy0_B0;{Jean De La Cassiere Street St. Paul's,Bay SPB 3138,Malta};Europe/Malta;false;false;;;+35679477682;http://bgs.com.mt/;1;5;;;false;true;false
0x130e4efd1fe908d5:0x8db8cd849c4a7d71;8f3f30408ba90cd;35.958663;14.42325;Malta National Aquarium;{aquarium,tourist_attraction};{tourism,recreation};ChIJ1QjpH_1ODhMRcX1KnITNuI0;{Triq it-Trunciera,San Pawl il-Baħar SPB 1500,Malta};Europe/Malta;false;false;;;+35622588100;http://www.aquarium.com.mt/;12314;4.2;60;120;true;true;true
0x130e4ef66c1e1e2d:0x292ec7ea0869aff2;8f3f30408cc4b8e;35.9520072;14.4090261;Hornblower Cruises;{boat_tour_agency,sightseeing_tour_agency,tour_agency};{service};ChIJLR4ebPZODhMR8q9pCOrHLik;{Dawret Il-Gzejjer,St Paul's Bay SPB 1480,Malta};Europe/Malta;false;false;;;+35679899899;http://www.hornblowermalta.com/;1610;4.5;15;45;true;true;true
0x130e4e379a1a150f:0x45de3e4014094915;8f3f3040a2f5cc4;35.9263925;14.4151627;Sherries Estates;{garden_center};{wholesaler};ChIJDxUamjdODhMRFUkJFEA-3kU;{Triq Burmarrad,St Paul's Bay,Malta};Europe/Malta;false;false;;;+35621580021;http://www.sherriesestates.com/;931;4.4;30;30;true;true;true
0x130e4e698d84e505:0x600c991898dd0537;8f3f3040ad48cf4;35.936017;14.3966503;St Paul's Bay;"";"";ChIJBeWEjWlODhMRNwXdmBiZDGA;{Malta};Europe/Malta;false;false;;;;;;;;;false;false;false
0x130e4fe91620695b:0x28313bd97cad1ff3;8f3f3040b014a02;35.9317518;14.4315746;Naxxar;"";"";ChIJW2kgFulPDhMR8x-tfNk7MSg;{Malta};Europe/Malta;false;false;;;;;;;;;false;false;false
0x130e4fb67695ce27:0x9944157299f1c30d;8f3f3040b09982c;35.928118;14.431838;Good Earth Distributors Ltd;{natural_foods_store};{groceries};ChIJJ86VdrZPDhMRDcPxmXIVRJk;{Burmarrad Road, Hardrocks Business Park In-Naxxar,NXR 6345,Malta};Europe/Malta;false;false;;;+35621431309;http://goodearth.com.mt/;19;4.7;15;15;true;true;true
0x130e4fcccd33c337:0x2da7a02d05f41421;8f3f3040e02304c;35.9514542;14.3886;ABC Diving;{diving_center,dive_shop,scuba_instructor,scuba_tour_agency};{shopping,sport,service};ChIJN8MzzcxPDhMRIRT0BS2gpy0;{The Boathouse,Triq il-Fekruna,Saint Paul's Bay SPB 4813,Malta};Europe/Malta;false;false;;;+35677333112;https://www.abcdivingmalta.com/;35;5;;;false;true;false
0x130e4e60f9a5cd75:0x3f650ca7e6bb7392;8f3f3040e22aae2;35.9486842;14.4000723;Dinky Fingers;{art_cafe,craft_store};{shopping,cafe};ChIJdc2l-WBODhMRknO75qcMZT8;{The Arches 493 Triq San Pawl St Pauls Bay,SPB 3416,Malta};Europe/Malta;false;false;;;;http://www.dinky-fingers.com/;43;4.7;;;false;true;false
0x130e4e637f22365d:0x750d31877696ad1e;8f3f3040e39091d;35.9473136;14.3936326;St. Paul's Bay Local Council;{council};{administration};ChIJXTYif2NODhMRHq2WdocxDXU;{St Paul's Bay,Malta};Europe/Malta;false;false;;;+35621585888;https://localgovernment.gov.mt/en/lc/StPaulsBay/Pages/default.aspx;21;2.6;;;false;true;false
0x130e4e793c84eb67:0x843e703f8079ecd;8f3f3040e5417a6;35.9473248;14.3829717;Munchy Monkey;{restaurant};{food};ChIJZ-uEPHlODhMRzZ4H-APnQwg;{Telgħet ix-Xemxija,St Paul's Bay,Malta};Europe/Malta;false;true;;;+35627017879;https://www.facebook.com/MunchyMonkey/;42;4.4;;;false;true;false
0x130e4e793a048f0d:0x3f086236829824b4;8f3f3040e541ae2;35.9475657;14.3832265;Porto del Sol;{guest_house,mediterranean_restaurant,restaurant};{food};ChIJDY8EOnlODhMRtCSYgjZiCD8;{13 Telgħet ix-Xemxija,St Paul's Bay,Malta};Europe/Malta;false;false;;;+35699429913;;157;4.2;;;false;false;false
0x130e4e7911c37b85:0x9b4f3e7abd79f289;8f3f3040e558b0c;35.9464083;14.3829288;Xemxija Pit Stop;{cafe};{cafe};ChIJhXvDEXlODhMRifJ5vXo-T5s;{Xatt Il-Pwales,St Paul's Bay,Malta};Europe/Malta;false;false;;1;+35627563027;https://m.facebook.com/XemxijaPitstop;557;4.5;15;45;true;true;true
0x130e4f0fdbf6ff9f:0xae1cd25ba3ed237;8f3f3040e569a86;35.9484205;14.3842823;Wines & Co;{wine_store};{shopping};ChIJn__22w9PDhMRN9I-uiXN4Qo;{39, Xemxija Hill Xemxija,SPB 9026,Malta};Europe/Malta;false;false;;;+35699422035;http://winesandco.net/;16;4.6;;;false;true;false
0x130e4e8027c3be77:0x389b028693a0d25a;8f3f3040ed44a0a;35.9565903;14.379867;Selmun Bar & Restaurant;{restaurant};{food};ChIJd77DJ4BODhMRWtKgk4YCmzg;{36 Selmun,Mellieha,Malta};Europe/Malta;false;false;;;+35699446225;;146;4.3;15;150;true;true;true
0x130e4df09b8768e9:0x876ddf2a693d7e8d;8f3f304189596ae;35.9189327;14.3617343;Mgarr;"";"";ChIJ6WiHm_BNDhMRjX49aSrfbYc;{Malta};Europe/Malta;false;false;;;;;;;;;false;false;false
0x130e4dec349f735b:0x57e2cc8b0a0afcc6;8f3f30418b25064;35.9194195;14.3671027;Ta' Celita - Sunny Bar and Restaurant;{restaurant};{food};ChIJW3OfNOxNDhMRxvwKCovM4lc;{1, Triq Sir Harry Luke L-Imġarr,MGR 1502,Malta};Europe/Malta;false;false;;;+35621573705;https://www.tacelita.com/;151;4.8;;;false;true;false
0x130e4d970a124fcb:0x63401bdd462dcc1e;8f3f3041c8c14a5;35.93414;14.3460362;Apple's Eye Restaurant;{restaurant};{food};ChIJy08SCpdNDhMRHswtRt0bQGM;{Il,Triq In-Nahhalija,Mellieha MLH 5510,Malta};Europe/Malta;false;false;;2;+35621573359;http://www.appleseyemalta.com/;1403;4;45;120;true;true;true
0x130e4b1011b2d685:0x7811ff0ace37d15b;8f3f30420d6b64a;36.035175;14.320099;Blue waters dive cove diving centre;{dive_shop};{shopping};ChIJhdayERBLDhMRW9E3zgr_EXg;{Triq Il-kuncizzjoni,Qala, Gozo QLA 1709,Malta};Europe/Malta;false;false;;;+35621565626;http://www.divebluewaters.com/;171;5;15;90;true;true;true
0x130e4b18fe24593f:0xfd74b0983cf26ae2;8f3f30424616d09;36.039707;14.31213;Il-Wileġ Restaurant;{maltese_restaurant};{food};ChIJP1kk_hhLDhMR4mryPJiwdP0;{33 Triq Il-Wileg,Qala, Gozo QLA 1930,Malta};Europe/Malta;false;true;;;+35699885482;;38;4.5;;;false;true;false
0x130e4b19dd343357:0x2439a8ffd7beda81;8f3f3042465a4ae;36.0388628;14.318101;Qala;"";"";ChIJVzM03RlLDhMRgdq-1_-oOSQ;{Malta};Europe/Malta;false;false;;;;;;;;;false;false;false
0x130e4b179cfaf81f:0x5750b4318868896a;8f3f3042469a822;36.0360517;14.3121423;Ur Choice Supermarket;{grocery_store};{groceries};ChIJH_j6nBdLDhMRaoloiDG0UFc;{Il Forn,Qala,Malta};Europe/Malta;false;false;;;+35699460763;https://www.facebook.com/urchoicesupermarket/;71;4.4;15;15;true;true;true
0x130e4b18f932a4db:0x8ebd34401f8eaa4a;8f3f304247894cd;36.039824;14.3119408;Il-Wileġ Bed & Breakfast;{bed_and_breakfast};{tourism};ChIJ26Qy-RhLDhMRSqqOH0A0vY4;{54 Triq Il-Mithna,Gozo QLA 1914,Malta};Europe/Malta;false;false;;;+35699885482;;68;4.7;;;false;false;false
0x130e4b2273600755:0x143b183c0c82644c;8f3f304247a2da5;36.041215;14.309011;The Qala Repose;{bed_and_breakfast};{tourism};ChIJVQdgcyJLDhMRTGSCDDwYOxQ;{Triq Ta Cini,Qala VCT 1831,Malta};Europe/Malta;false;false;;;+35699971703;;6;4.7;;;false;false;false
0x130e4b4896a4ee8d:0x5c8f87ddf11811e0;8f3f3042609d023;36.0244203;14.2966905;Gleneagles Bar;{bar};{drinks};ChIJje6klkhLDhMR4BEY8d2Hj1w;{10, Triq Il-Vittorja Gozo GSM 2400,Malta};Europe/Malta;false;false;;;+35621556543;;158;4.7;90;180;false;true;false
0x130e4b4846aecd11:0x4ab28992ef07b1a7;8f3f304260a56b4;36.0266386;14.2959648;Grand Hotel Gozo;{hotel,atm,bar,indoor_swimming_pool,outdoor_swimming_pool,parking_garage,restaurant,spa_and_health_club};{service,automobile,drinks,food,recreation,tourism};ChIJEc2uRkhLDhMRp7EH75KJsko;{Triq Sant Antnin, Mgarr,Gozo GSM 9026,Malta};Europe/Malta;false;false;;;+35622161000;http://www.grandhotelmalta.com/;518;4.3;;;false;false;false
0x130fb4b4b1221ee3:0x5c8bac4e551557d0;8f3f30426536460;36.025076;14.28559;Globetrotter Homestay;{holiday_accommodation_service};{tourism};ChIJ4x4isbS0DxMR0FcVVU6si1w;{28 Triq Ta' Cordina,Għajnsielem GSM 2011,Malta};Europe/Malta;false;false;;;+35677700154;http://globetrotterguesth.wix.com/gozo-rentals;24;4.5;;;false;false;false
0x130e4b09ca6d40e9:0x4911fc8dd0b0d628;8f3f30426cca04e;36.0270586;14.2910381;Amabile Cauchi Playingfield;{playground};{recreation};ChIJ6UBtyglLDhMRKNaw0I38EUk;{27GR+RCF,Ghajnsielem,Malta};Europe/Malta;false;false;;;;;;;;;false;false;false
0x130e45657785143f:0xcf48fb0ab3d94d4a;8f3f30450401573;35.9283266;14.483288;Pembroke Pharmacy;{pharmacy};{medical};ChIJPxSFd2VFDhMRSk3Zswr7SM8;{87 Giuseppe Malfeggiani,Pembroke PBK 1261,Malta};Europe/Malta;false;false;;;+35621372784;;5;4;15;15;true;true;true
0x130e4565000a6d1b:0x82f660f0ee32f89b;8f3f30450436528;35.9286401;14.4805684;Pembroke Supermarket;{supermarket};{groceries};ChIJG20KAGVFDhMRm_gy7vBg9oI;{152 Patri Indri Vella,Pembroke PBK 1311,Malta};Europe/Malta;false;false;;;+35621378606;;96;4.4;15;15;true;true;true
0x130e45647506d89b:0x15d042102d4df10;8f3f30450591b5c;35.9275128;14.4783482;Maypole Pembroke;{convenience_store};{groceries};ChIJm9gGdWRFDhMREN_UAiEEXQE;{Madre Margerita De Brincat,Pembroke,Malta};Europe/Malta;false;false;;;+35622581563;;12;4.4;10;10;true;true;true
0x130e4f05e703882f:0x59e7538d23884899;8f3f3045061552c;35.9253917;14.492265;The Westin Dragonara Resort, Malta;{hotel,indoor_lodging,meeting_planning_service,wedding_venue};{tourism,service};ChIJL4gD5wVPDhMRmUiII41T51k;{Dragonara Road St. Julian's,STJ 3143,Malta};Europe/Malta;false;false;;;+35621381000;https://www.marriott.com/hotels/travel/mlawi-the-westin-dragonara-resort-malta/?scid=bb1a189a-fec3-4d19-a255-54ba596febe2&y_source=1_NDI2NjI1MC03MTUtbG9jYXRpb24uZ29vZ2xlX3dlYnNpdGVfb3ZlcnJpZGU%3D;2173;4.6;;;false;false;false
0x130e456bbfe91a17:0x4d9099a51e8b62f1;8f3f3045068051b;35.9227936;14.4911794;Hotel Valentina;{hotel};{tourism};ChIJFxrpv2tFDhMR8WKLHqWZkE0;{Dobbie,St Julian's,Malta};Europe/Malta;false;false;;;+35621382232;http://www.hotelvalentina.com/;684;4.7;;;false;false;false
0x130e456bbd73ff6d:0x3f584a822e6861bb;8f3f30450681cf0;35.922924;14.491765;Alexandra Hotel Malta;{hotel};{tourism};ChIJbf9zvWtFDhMRu2FoLoJKWD8;{Schreiber Street, Paceville,Schreiber St,San Ġiljan,Malta};Europe/Malta;false;false;;;+35621351151;http://www.alexandrahotelmalta.com/;1445;3.5;;;false;false;false
0x130e456be9f32b6b:0x5df9b79a01eb85fb;8f3f30450684450;35.9231591;14.4909508;The George, Urban Boutique Hotel;{hotel};{tourism};ChIJayvz6WtFDhMR-4XrAZq3-V0;{Triq Paceville Saint Julian's STJ,3103,Malta};Europe/Malta;false;false;;;+35620111000;https://www.thegeorgemalta.com/;461;4.2;;;false;false;false
0x130e456beb78b27b:0xb483bd7dc12ba45f;8f3f304506848e8;35.923439;14.491077;Lombard Bank Malta p.l.c.;{bank};{service};ChIJe7J462tFDhMRX6QrwX29g7Q;{Paceville Avenue San Ġiljan STJ,3103,Malta};Europe/Malta;false;false;;;+35625581400;http://www.lombardmalta.com/;2;3;;;true;true;true
0x130e456b91348595:0x445ed64a173f2dc4;8f3f30450685071;35.923333;14.4917234;Tana Del Lupo;{italian_restaurant};{food};ChIJlYU0kWtFDhMRxC0_F0rWXkQ;{Triq il-Wilga,St Julian's,Malta};Europe/Malta;false;true;;;;;3;3.3;;;false;false;false
0x130e456bc698e8f5:0x52131d898cd26197;8f3f30450686661;35.9227223;14.4909212;Il Pirata Restaurant;{mediterranean_restaurant};{food};ChIJ9eiYxmtFDhMRl2HSjIkdE1I;{Triq Paceville,St Julian's,Malta};Europe/Malta;true;false;;2;+35621375827;https://ilpirata.com.mt/;919;4.4;;;false;true;false
0x130e456b01562117:0xcc50d0fd1b403a4;8f3f3045068b151;35.9221788;14.493209;Hilton Malta;{hotel};{tourism};ChIJFyFWAWtFDhMRpAO00Q8NxQw;{Vjal Portomaso St Julian's PTM,01,Malta};Europe/Malta;false;false;;;+35621383383;https://www3.hilton.com/en/hotels/malta/hilton-malta-MLAHITW/index.html?WT.mc_id=zELWAKN0EMEA1HI2DMH3LocalSearch4DGGenericx6MLAHITW;3804;4.7;;;false;false;false
0x130e456bcde63abd:0xcc7740137465ea03;8f3f30450691151;35.9220888;14.4908464;The Avenue Restaurant;{italian_restaurant};{food};ChIJvTrmzWtFDhMRA-pldBNAd8w;{Triq Gort,St Julian's,Malta};Europe/Malta;false;false;;2;+35621351753;https://www.theavenuemalta.com/;2989;4.4;60;120;true;true;true
0x130e456bcb8270b5:0xabee4d634c3deaaa;8f3f30450691386;35.9219837;14.4909291;Maltese Mama Restaurant;{maltese_restaurant,italian_restaurant,restaurant};{food};ChIJtXCCy2tFDhMRquo9TGNN7qs;{19,Paceville Avenue,St Julian's STJ 3108,Malta};Europe/Malta;false;true;;2;+35627377024;https://www.facebook.com/Maltese-Mama-1764083610481417/;508;4.4;;;false;true;false
0x130e453e97eb8ef1:0x562cc6a82b649b4a;8f3f30450692376;35.9216102;14.4901607;Alice Pizza;{pizza_restaurant};{food};ChIJ8Y7rlz5FDhMRSptkK6jGLFY;{137 St George's Road,St Julian's,Malta};Europe/Malta;false;false;;1;+35621382009;http://www.alicepizza.it/;569;4.6;20;20;true;true;true
0x130e456a4e4601cd:0x34762a7b4ef66faf;8f3f3045069bcdd;35.9212385;14.491871;Cleland & Souchet;{wine_store,gift_basket_store,gift_shop,jewelry_store,wine_club};{shopping,entertainment};ChIJzQFGTmpFDhMRr2_2TnsqdjQ;{Block 14 Vjal Portomaso San Ġiljan,STJ 4013,Malta};Europe/Malta;false;false;;;+35621389898;https://www.clelandsouchet.com/;136;4.6;30;90;true;true;true
0x130e456b894dcee7:0xcdcbda8aab60fa84;8f3f304506a10ad;35.9241167;14.4916083;Golden Tulip Vivaldi Hotel;{hotel,conference_center,gym,lounge,swimming_pool};{art_culture,sport,recreation,tourism};ChIJ585NiWtFDhMRhPpgq4ray80;{Triq Dragonara San Ġiljan STJ,06,Malta};Europe/Malta;false;false;;;+35621378100;https://vivaldi.goldentulip.com/;1559;4.1;;;false;false;false
0x130e456beec9e183:0x7de1e254e43cb39d;8f3f304506a2446;35.923581;14.4906533;The Olde Keg;"";"";ChIJg-HJ7mtFDhMRnbM85FTi4X0;{Triq il-Wilga,St Julian's,Malta};Europe/Malta;false;true;;;;;3;4;;;false;false;false
0x130e456b99b5e3cd:0xa66d4b529bb6f5ab;8f3f304506ae8ae;35.9238821;14.4918576;Shivas Indian restaurant;{indian_restaurant};{food};ChIJzeO1mWtFDhMRq_W2m1JLbaY;{Triq Dragunara,St Julian's,Malta};Europe/Malta;false;false;;2;+35621384399;https://shivasmalta.com/;169;4.2;;;true;true;true
0x130e456be5327d97:0xf6f16dd86ef5c111;8f3f304506b5b4d;35.9238671;14.4903935;L'Ostricaio Malta (Paceville and Balluta bay);{restaurant};{food};ChIJl30y5WtFDhMREcH1btht8fY;{Triq Ball,St Julian's,Malta};Europe/Malta;false;false;;2;+35627050936;;753;4.5;90;120;true;true;true
0x130e456be21ef713:0x7e715c82e8e16dfe;8f3f304506b5cc6;35.9236714;14.489973;PV Hostel;{hostel};{tourism};ChIJE_ce4mtFDhMR_m3h6IJccX4;{13 Triq il-Wilga,St Julian's,Malta};Europe/Malta;false;false;;;+35679097447;http://pv-hostel.gotomalta.co.uk/;150;3.7;;;false;false;false
0x130e456de64b489f:0x63206b35bcd037e6;8f3f30450706d4a;35.9287799;14.4903902;Corinthia St George's Bay;{hotel,resort_hotel};{tourism};ChIJn0hL5m1FDhMR5jfQvDVrIGM;{St Georges Bay,St Julians STJ 3301,Malta};Europe/Malta;false;false;;;+35621374114;http://www.corinthia.com/stgeorges;2246;4.5;;;false;false;false
0x130e456a808f528b:0x867bfeae3f40e149;8f3f3045079048d;35.924657;14.487863;Hard Rock Cafe;{american_restaurant};{food};ChIJi1KPgGpFDhMRSeFAP67-e4Y;{Level 2, Baystreet Complex, St George's Bay St Julian's,STJ 1275,Malta};Europe/Malta;false;true;0x130e45692de6f53d:0x4a6c1ed1c9caf574;2;+35621380983;https://www.hardrockcafe.com/location/malta/#utm_source=Google&utm_medium=Yext&utm_campaign=Listings;2731;4.3;;;false;true;false
0x130e456ecb0f6583:0xeacf846c6b045019;8f3f30450790b85;35.924963;14.488114;eeetwell;{health_food_restaurant};{food};ChIJg2UPy25FDhMRGVAEa2yEz-o;{Triq Santu Wistin San Ġiljan,STJ 3311,Malta};Europe/Malta;false;false;;1;+35627549610;http://eeetwell.com/;484;4.5;20;60;true;true;true
0x130e456936ed3323:0x63685b100be2c011;8f3f30450793cd2;35.9244014;14.4881429;Capt. A. Caruana - Wines, Spirits and Tobacco;{wine_store,cigar_shop,tobacco_shop};{shopping};ChIJIzPtNmlFDhMREcDiCxBbaGM;{Triq Santu Wistin,San Giljan,STJ 3313,Malta};Europe/Malta;false;false;;;+35621380950;https://www.captcaruana.com/;74;4.7;;;true;true;true
0x130e456934578929:0xd9be14ea32c5e8c2;8f3f30450796214;35.924749;14.487619;be.Hotel;{hotel};{tourism};ChIJKYlXNGlFDhMRwujFMuoUvtk;{Bay Street Tourist Complex, St. George's Bay,San Ġiljan STJ 3311,Malta};Europe/Malta;false;false;0x130e45692de6f53d:0x4a6c1ed1c9caf574;;+35623719000;http://www.behotelmalta.com/;1556;4.1;;;false;false;false
0x130e455c786f6495:0xd11fe8dfc5831f65;8f3f304520646e6;35.915184;14.480793;Gateway School of English GSE - English language school and quality English courses in Malta;{english_language_school,adult_education_school,education_center,english_language_camp,english_language_instructor,language_school,school};{education};ChIJlWRveFxFDhMRZR-Dxd_oH9E;{Triq Il-Bosfru,St Julian's,Malta};Europe/Malta;false;false;;;+35621375086;http://www.english-malta.com/;107;4.4;;;false;true;false
0x130e455b8792495f:0x62acac2235ee9de6;8f3f3045206685e;35.9151172;14.480469;Gateway School of English Residence Accommodation;{serviced_accommodation,english_language_camp,english_language_school};{apartment,education};ChIJX0mSh1tFDhMR5p3uNSKsrGI;{GSE Residence Triq il-Bosfru San Gwann,SGN 1953,Malta};Europe/Malta;false;false;;;+35621375086;https://english-malta.com/accommodation/the-gateway-school-student-residence/;12;3.7;;;false;false;false
0x130e455791c0708d:0xbde96a3e25d16b77;8f3f30452090a86;35.909777;14.474249;La Rovesciata;{sports_bar};{drinks};ChIJjXDAkVdFDhMRd2vRJT5q6b0;{Triq Il- Kampanella,San Gwann,Malta};Europe/Malta;false;false;;2;+35627036442;http://www.larovesciata.com/;148;4.2;;;false;true;false
0x130e455a3dbc90c3:0xd2200e1d03aab7fe;8f3f304520e3551;35.9115184;14.4792531;The Hub Workspace;{coworking_space};{office};ChIJw5C8PVpFDhMR_reqAx0OINI;{Triq San Andrija,San Gwann SGN 1612,Malta};Europe/Malta;false;false;;;+35627662766;http://www.thehubmalta.com/;35;4.3;;;false;true;false
0x130e4540b97c3493:0x622e2d2c4751fa7d;8f3f3045227641d;35.9114676;14.4896196;Goloso Gastro Bar;{restaurant};{food};ChIJkzR8uUBFDhMRffpRRywtLmI;{10 Triq Birkirkara,St Julian's,Malta};Europe/Malta;false;false;;1;+35621384481;https://gastrobar.golosogroup.com/;337;4.4;;;false;true;false
0x130e4544f390f3ff:0xa97641126e2905e5;8f3f304523198d8;35.912812;14.486466;Chic Hair & MakeUp;{hair_salon};{beauty};ChIJ__OQ80RFDhMR5QUpbhJBdqk;{Triq D. Sciculus No 39,Ta Giorni, San Giljan,Malta};Europe/Malta;false;false;;;+35627427375;https://www.facebook.com/ChicHairAndMakeMalta/;11;5;;;false;true;false
0x130e45d92e754a17:0x118ea42d87972b87;8f3f3045236cc6a;35.9154422;14.4903919;The Podium Block A;{lodging};{misc};ChIJF0p1LtlFDhMRhyuXhy2kjhE;{The Podium,St Mark St,St Julian's,Malta};Europe/Malta;false;false;;;;;;;;;false;false;false
0x130e455aa16694c5:0x4b973874fe078f78;8f3f30452393155;35.9097043;14.4827523;Emma's Kitchen;{cafe};{cafe};ChIJxZRmoVpFDhMReI8H_nQ4l0s;{Triq In-Naxxar,San Gwann SGN 9033,Malta};Europe/Malta;false;false;;2;+35620991184;http://www.emmaskitchen.com.mt/;635;4.4;20;90;true;true;true
0x130e4ff92b9a5503:0x79cda2559d2daa7f;8f3f3045241ad60;35.9059141;14.4690755;HomeTrends;{home_improvement_store,fireplace_store,furniture_accessories,furniture_store,gift_shop,home_goods_store,outdoor_furniture_store};{shopping,wholesaler};ChIJA1WaK_lPDhMRf6otnVWizXk;{Triq taż-Żwejt,San Gwann,Malta};Europe/Malta;false;false;;;+35621445654;http://www.hometrends.com.mt/;207;4.2;20;20;true;true;true
0x130e4fca681ffe7d:0x293f347eb385e823;8f3f3045241e743;35.9060529;14.4690463;Baby & Kids by Home Trends;{baby_store,baby_clothing_store,childrens_clothing_store,childrens_store,maternity_store};{shopping};ChIJff4faMpPDhMRI-iFs340Pyk;{Baby & Kids Triq taż-Żwejt San Gwann,SGN 3000,Malta};Europe/Malta;false;false;;;+35621445654;https://hometrendsbabyandkids.com.mt/;;;;;false;true;false
0x130e4557b66a07af:0x2375a4a87544f9ce;8f3f3045244da83;35.9077365;14.4752416;San Gwann;"";"";ChIJrwdqtldFDhMRzvlEdaikdSM;{Malta};Europe/Malta;false;false;;;;http://www.sangwannmalta.org/;;;;;false;false;false
0x130e4ffde8e3ecf7:0x5a50b6900a0489ab;8f3f3045250d95a;35.9105304;14.4687623;Lighthouse kitchen and Lounge;{italian_restaurant,coffee_shop};{food,cafe};ChIJ9-zj6P1PDhMRq4kECpC2UFo;{2321,Shop 10, Triq id-Disgha Ta’ Frar, 1799, San Gwann SGN,10 Triq id-Disgħa ta' Frar 1799,San Ġwann, Malta};Europe/Malta;false;true;;;+35679084159;;48;4.5;;;false;true;false
0x130e4ff824eed1d3:0x7df93a393fb75b72;8f3f30452546d71;35.9105227;14.4703607;BoConcept Malta;{furniture_store,bedroom_furniture_store,interior_designer,lighting_store,office_furniture_store,rug_store,sofa_store};{shopping,wholesaler,service};ChIJ09HuJPhPDhMRclu3Pzk6-X0;{Triq tal-Balal,San Gwann SGN 9016,Malta};Europe/Malta;false;false;;;+35621378011;https://www.boconcept.com/mt-mt/;26;4.1;;;true;true;true
0x130e45548ca6d317:0x9af354451a8f887d;8f3f304526b340c;35.9017952;14.4763961;Mater Dei Hospital;{hospital};{medical};ChIJF9OmjFRFDhMRfYiPGkVU85o;{Triq Dun Karm, L-Imsida,MSD2090,Malta};Europe/Malta;false;false;;;+35625450000;https://ehealth.gov.mt/HealthPortal/health_institutions/hospital_services/mater_dei_hospital/mater_dei.aspx;305;3.7;;;false;true;false
0x130e45574b4d63f1:0xfef8e6e47b36c023;8f3f30452723805;35.9087941;14.477398;Lidl;{supermarket};{groceries};ChIJ8WNNS1dFDhMRI8A2e-Tm-P4;{Triq Ic-Ciklamini 18 San Ġwann SGN,1331,Malta};Europe/Malta;false;false;;;+35680062777;https://www.lidl.com.mt/;3170;4.2;20;45;true;true;true
0x130e4550cd2cb787:0x29191bef5e8d86da;8f3f3045272a1a5;35.9082597;14.47826;The Charity Shop;{charity,used_clothing_store};{shopping};ChIJh7cszVBFDhMR2oaNXu8bGSk;{9 Triq Tal Mensija,San Gwann SGN 1608,Malta};Europe/Malta;false;false;;;+35627017878;;20;4.6;;;false;true;false
0x130e4550cfbc3407:0x30550d4b443b6c64;8f3f3045272b41e;35.9080988;14.4787743;Bank Of Valletta;{bank};{service};ChIJBzS8z1BFDhMRZGw7REsNVTA;{184 Triq In-Naxxar,San Ġwann SGN 9030,Malta};Europe/Malta;false;false;;;+35621312020;;11;2.6;10;45;true;true;true
0x130e455719827721:0x70867f3bcb5ebf58;8f3f30452731523;35.9081;14.476364;Vetcare Animal Clinic;{veterinarian,emergency_veterinarian_service};{medical};ChIJIXeCGVdFDhMRWL9eyzt_hnA;{Misrah Lourdes,San Gwann SGN 2010,Malta};Europe/Malta;false;false;;;+35621373277;http://www.vetcaremalta.com/;36;4;15;60;true;true;true
0x130e45fd44eb6229:0xe7f639fb0bdac132;8f3f30452760452;35.9090356;14.4811632;Tikka's Thai Street Food;{restaurant};{food};ChIJKWLrRP1FDhMRMsHaC_s59uc;{47 Triq In-Naxxar,San Gwann,Malta};Europe/Malta;false;false;;;+35699333111;https://tikkasstreetfood.com/;164;4.7;15;15;true;true;true
0x130e4555e1504197:0xdffa800208087ecd;8f3f304527b670e;35.9049904;14.4734606;Caxton Printshop Ltd.;{commercial_printer,print_shop,screen_printer};{shopping};ChIJl0FQ4VVFDhMRzX4ICAKA-t8;{SUB007A, San Gwann Industrial Estate,,San Ġwann SGN 3000,Malta};Europe/Malta;false;false;;;+35621445906;http://www.caxtonprint.eu/;1;5;;;true;true;true
0x130e45355a2464cf:0x2b52c82fb69aa96f;8f3f304528059b4;35.9228252;14.4749077;Casumo;{company};{misc};ChIJz2QkWjVFDhMRb6mati_IUis;{The Unicorn Centre, Triq Il-Uqija,Is-Swieqi,Malta};Europe/Malta;false;false;;;;https://www.casumo.com/;95;3.7;;;false;true;false
0x130e4560e3d4e95d:0x3d340f75a353e678;8f3f30452811a1b;35.921447;14.4744202;Agenda Bookshop;{book_store};{shopping};ChIJXenU42BFDhMReOZTo3UPND0;{Triq Sant' Andrija,Swieqi,Malta};Europe/Malta;false;false;;;+35621377311;https://millermalta.com/;37;4.5;25;25;true;true;true
0x130e456079eb73e1:0x5d95ea1ed6ec4b65;8f3f3045281cc10;35.921417;14.474595;Drift Meze/Cafe;{restaurant,breakfast_restaurant,cafe,greek_restaurant,mediterranean_restaurant};{food,cafe};ChIJ4XPreWBFDhMRZUvs1h7qlV0;{Ibragg Road,Swieqi,Malta};Europe/Malta;false;false;;2;+35627138540;http://driftmezecafe.com/;280;4.4;;;true;true;true
0x130e45c673fd5947:0x7c68c4a7f8c40e40;8f3f304528ad228;35.9204934;14.4745137;Ben Estates;{real_estate_agency};{service};ChIJR1n9c8ZFDhMRQA7E-KfEaHw;{WFCF+5RR,Swieqi,Malta};Europe/Malta;false;false;;;+35627677228;;;;;;false;true;false
0x130e456143cb94ef:0xe168e60f91ca8ad8;8f3f3045294011e;35.9252353;14.4766961;Triq Alamein;"";"";ChIJ75TLQ2FFDhMR2IrKkQ_maOE;{Pembroke,Malta};Europe/Malta;false;false;;;;;;;;;false;false;false
0x130e45c5446d5a55:0x3468146135bd003e;8f3f3045298901a;35.9216777;14.472744;Embassy of Palestine;{embassy};{administration};ChIJVVptRMVFDhMRPgC9NWEUaDQ;{52 triq il modd,Swieqi SWQ 2371,Malta};Europe/Malta;false;false;;;+35627801200;https://embassyofpalestine.business.site/?utm_source=gmb&utm_medium=referral;;;;;false;false;false
0x130e456a1b7c9217:0x371ed4e948f0156d;8f3f30452a41a1c;35.920037;14.490182;Sardinella Restaurant;{restaurant};{food};ChIJF5J8G2pFDhMRbRXwSOnUHjc;{St George's Road,St Julian's,Malta};Europe/Malta;false;true;;2;+35620993300;;467;4;;;false;true;false
0x130e456a00107a99:0x1af5b84be414e4fd;8f3f30452a43b73;35.9196931;14.4899138;Café Juliani;{cafe,asian_fusion_restaurant,breakfast_restaurant,cocktail_bar,sushi_restaurant,tea_house};{food,cafe,drinks};ChIJmXoQAGpFDhMR_eQU5Eu49Ro;{25 Saint George's Road St Julian's,STJ 3208,Malta};Europe/Malta;false;false;0x130e456a006d4eef:0xf9fafbda86e5ba6b;;+35621388000;http://www.cafejuliani.com/;100;4.5;;;true;true;true
0x130e45e4579941f1:0x355b52205004f4f;8f3f30452a4c942;35.9201853;14.4905901;Zen Sushi to Go - St. Julian's;{restaurant};{food};ChIJ8UGZV-RFDhMRT08ABSK1VQM;{St George's Road,St Julian's,Malta};Europe/Malta;false;false;;;+35621376203;http://www.zensushitogo.com/;276;4.5;15;60;true;true;true
0x130e456a0d03173f:0x71a359e3ea2f8fbb;8f3f30452a4d690;35.9197277;14.4911874;Gululu Restaurant;{maltese_restaurant};{food};ChIJPxcDDWpFDhMRu48v6uNZo3E;{133, Spinola bay, St Julians Road,San Ġiljan,Malta};Europe/Malta;false;false;;2;+35621333431;http://gululu.com.mt/;2107;4.1;90;150;false;true;false
0x130e456a008ffed9:0x3be2f23847bce534;8f3f30452a58d72;35.9187857;14.4895606;Spinola;{bus_station};{public_transportation};ChIJ2f6PAGpFDhMRNOW8Rzjy4js;{St Julian's,Malta};Europe/Malta;false;false;;;;;22;4;;;true;false;true
0x130e51d6a7b08e85:0xc3e6ef06d0f2e7ff;8f3f30452a58d81;35.918721;14.489478;Badass Burgers;{hamburger_restaurant,bar_and_grill};{food};ChIJhY6wp9ZRDhMR_-fy0Abv5sM;{No1 st Georges Road,St Julian's,Malta};Europe/Malta;false;false;;2;+35621384066;http://www.badass.com.mt/;973;4.4;;;true;true;true
0x130e4569f2cbab7b:0xf6f2a06f84809f83;8f3f30452a631a6;35.9207609;14.48928;The Residence St. Julians;{self_catering_accommodation};{tourism};ChIJe6vL8mlFDhMRg5-AhG-g8vY;{Triq L.Apap Saint Julian's,STJ 3325,Malta};Europe/Malta;false;false;;;+35699360031;http://theresidencestjulians.com/;35;3;;;false;false;false
0x130e456a36ce729d:0xcf3677ed63a03ee0;8f3f30452a6c8dc;35.9212915;14.4902524;Marco Polo Hostel;{hostel};{tourism};ChIJnXLONmpFDhMR4D6gY-13Ns8;{Triq Ross,St Julian's,Malta};Europe/Malta;false;false;;;+35627001430;https://sites.google.com/view/marcopolohostel/inicio;671;4.4;;;false;false;false
0x130e456a2fd11b99:0x1ec9b6a80f673191;8f3f30452a6ca54;35.9213103;14.4904795;Big G's;{bar};{drinks};ChIJmRvRL2pFDhMRkTFnD6i2yR4;{Triq Ross,St Julian's,Malta};Europe/Malta;false;false;;1;+35699024100;;378;4.4;;;false;true;false
0x130e4543d60cde51:0x9437d7482562f921;8f3f30452acb158;35.9161928;14.4893294;Embassy of the People's Republic of China;{embassy};{administration};ChIJUd4M1kNFDhMRIfliJUjXN5Q;{Karmnu Court,Triq Lapsi,San Ġiljan,Malta};Europe/Malta;false;false;;;;http://mt.china-embassy.org/eng/;6;4.7;;;false;false;false
0x130e45424227ea27:0x1582de250cc515f1;8f3f30452ae12c3;35.918054;14.487975;Magister Academy;{english_language_school};{education};ChIJJ-onQkJFDhMR8RXFDCXeghU;{'L-Arkati',,Mensija St,San Ġiljan STJ 1960,Malta};Europe/Malta;false;false;;;+35627505550;;14;4.4;;;false;true;false
0x130e45691da12aa5:0xba6d3d24090a1030;8f3f30452b44103;35.923178;14.486872;The District Hotel;{hotel};{tourism};ChIJpSqhHWlFDhMRMBAKCSQ9bbo;{Triq Santu Wistin,St Julian's,Malta};Europe/Malta;false;false;;;+35627411441;http://www.thedistricthotel.com.mt/;296;4.4;;;false;false;false
0x130e45690e48f52b:0x8358d20ed2b05ab0;8f3f30452b48684;35.9221456;14.4887321;Le Majoliche;{restaurant,italian_restaurant,seafood_restaurant};{food};ChIJK_VIDmlFDhMRsFqw0g7SWIM;{Pendergardens, Is-Swieqi STJ, 9023,Triq Sant' Andrija,St Julian's,Malta};Europe/Malta;false;false;0x130e45699f3b66ab:0x5259d0fdd179c24d;2;+35621376212;https://www.facebook.com/lemajolicherestaurant/;807;4.7;90;180;true;true;true
0x130e456972d524cf:0xbaf39d46f26d5899;8f3f30452b4c586;35.9226406;14.4881508;EC Malta English School and EC Malta 30+ (Adult English Centre);{english_language_school,adult_education_school,educational_institution,language_school,learning_center,private_school,school};{education};ChIJzyTVcmlFDhMRmVht8kad87o;{Language House', Marguerite Mangion Street St. Julian's,STJ 3180,Malta};Europe/Malta;false;false;;;+35623790000;https://www.ecenglish.com/en/school-locations/malta/learn-english-in-malta;144;4.2;;;false;true;false
0x130e4568df2dc6f5:0x7c31b82905d90b0d;8f3f30452b60ced;35.923976;14.486744;CAMAS Malta;{training_center};{education};ChIJ9cYt32hFDhMRDQvZBSm4MXw;{Peace Haven Villa Santu Wistin Road,San Ġiljan SWQ 3310,Malta};Europe/Malta;false;false;;;+35621376763;http://www.camasmalta.com/;5;4;;;false;true;false
0x130e456939fd14c9:0x37d018d5b33629af;8f3f30452b6c8ae;35.9241417;14.4879892;Casino Malta;{casino,tourist_attraction};{entertainment,tourism};ChIJyRT9OWlFDhMRryk2s9UY0Dc;{Eden Place St Augustine Street, St George's Bay,San Ġiljan STJ 3310,Malta};Europe/Malta;false;false;;;+35623710555;http://www.casinomalta.com.mt/;1254;4.2;60;180;true;true;true
0x130e456789937099:0xf746f050f759903c;8f3f30452b8454d;35.9199042;14.4807312;Garden View Holiday Complex;{hotel};{tourism};ChIJmXCTiWdFDhMRPJBZ91DwRvc;{WF9J+X79,Swieqi,Malta};Europe/Malta;false;false;;;+35623772107;;122;3.7;;;false;false;false
0x130e455d5cedf21b:0x9233921d44431a94;8f3f30452b8d892;35.9197277;14.4827936;Ġnien F.X.Ebejer;{park};{recreation};ChIJG_LtXF1FDhMRlBpDRB2SM5I;{Is-Swieqi,Malta};Europe/Malta;false;false;;;;;;;;;false;false;false
0x130e456744f95e07:0x1ea1f81539517e0f;8f3f30452bb5d12;35.9204329;14.4796283;Holiday Malta Villas & Apartments;{vacation_home_rental_agency,apartment_rental_agency,holiday_accommodation_service,holiday_apartment_rental,villa};{tourism,service};ChIJB175RGdFDhMRD35RORX4oR4;{Nr 1 , Ivy Mansions,Triq il qasam Swieqi,St Julian's,Malta};Europe/Malta;false;false;;;+35621678781;https://holiday-malta.com/;8;3.8;;;false;false;false
0x130e453d20cdb4b5:0x92cdd2cc05a0746b;8f3f304530000b3;35.9147156;14.5061744;Le Malte;{maltese_restaurant};{food};ChIJtbTNID1FDhMRa3SgBczSzZI;{Tower Road,Sliema,Malta};Europe/Malta;false;true;;;+35621342242;;116;3.9;;;false;true;false
0x130e453cb7f876fb:0x8aa5e4c6bcc9e2b0;8f3f30453018173;35.9136001;14.5065977;Preluna Hotel - Malta;{hotel};{tourism};ChIJ-3b4tzxFDhMRsOLJvMbkpYo;{124 Tower Road,Sliema SLM 1605,Malta};Europe/Malta;false;false;;;+35621334001;http://www.preluna.com/;1365;3.9;;;false;false;false
0x130e453ceb510a23:0x9e25c64fb5e17865;8f3f3045301c448;35.9138193;14.5062152;Sciantusi;{italian_restaurant,beer_hall,hamburger_restaurant,pizza_restaurant,pizzatakeaway};{food,drinks};ChIJIwpR6zxFDhMRZXjhtU_GJZ4;{Triq Milner,Sliema,Malta};Europe/Malta;false;false;;2;+35621313181;https://www.sciantusi.com/;1004;4.4;;;true;true;true
0x130e453da83caa13:0x1dbe149444d500bc;8f3f3045303409b;35.9154411;14.5044;Il-Gabbana;{cafe,bar,bistro};{cafe,drinks};ChIJE6o8qD1FDhMRvADVRJQUvh0;{Tower Road,Sliema SLM 1604,Malta};Europe/Malta;false;false;;2;+35627011527;http://www.ilgabbana.com/;1649;4.3;20;90;true;true;true
0x130e453b60b15d1b:0x8efc3733b64c10d6;8f3f30453088983;35.9115999;14.5056532;Casa Natura;{health_food_store};{groceries};ChIJG12xYDtFDhMR1hBMtjM3_I4;{Triq il-Kbira Tas-Sliema,SLM 1548,Malta};Europe/Malta;false;false;;;+35621319929;http://www.casanaturamalta.com/;30;4.6;15;15;true;true;true
0x130e453b676fa459:0xef2ea6f78a18c28f;8f3f3045308b01b;35.9110029;14.5061074;Fortedent Dental Clinic;{dental_clinic};{medical};ChIJWaRvZztFDhMRj8IYivemLu8;{114 High Street,Sliema,Malta};Europe/Malta;false;false;;;+35627333111;http://www.fortedent.com/;107;5;45;60;true;true;true
0x130e453b5d428465:0xe9902f5f8a68ba07;8f3f3045308b034;35.9110516;14.5060562;Delizie Siciliane;{sicilian_restaurant,cafe};{food,cafe};ChIJZYRCXTtFDhMRB7poil8vkOk;{Triq il Kbira,Tas-Sliema,Malta};Europe/Malta;false;false;;;+35627659941;;204;4.8;20;20;true;true;true
0x130e453b63ea7da3:0x946f1c8be869de1a;8f3f3045308c198;35.9118068;14.5053847;Hole in the Wall Bar & Cafe;{bar,cafe};{cafe,drinks};ChIJo33qYztFDhMRGt5p6Iscb5Q;{31 High Street,Sliema SLM 1549,Malta};Europe/Malta;false;false;;1;+35699808386;https://holeinthewall.com.mt/;691;4.7;;;true;true;true
0x130e453c721aa8fd:0x9c4dc1457f86cabf;8f3f304530a6098;35.9129119;14.503317;Saint James Hospital;{hospital,medical_clinic,private_hospital};{medical};ChIJ_agacjxFDhMRv8qGf0XBTZw;{George Borg Olivier Street Sliema,SLM 1807,Malta};Europe/Malta;false;false;;;+35623291000;http://www.stjameshospital.com/;172;3.3;;;false;true;false
0x130e453bf5219e49:0x48767cd0a91f02db;8f3f304530b0140;35.912201;14.502824;Salisbury Arms;{pub,restaurant};{food,drinks};ChIJSZ4h9TtFDhMR2wIfqdB8dkg;{81 Triq Il - Kbira,Sliema SLM 1506,Malta};Europe/Malta;false;false;;1;+35627868177;http://www.salisburyarmspub.com/;730;4.6;45;120;true;true;true
0x130e453b8830c555:0xfb64fdbe5044fe21;8f3f304530b1035;35.9121832;14.5033524;AX The Palace Malta;{hotel,cafe,gym,indoor_swimming_pool,restaurant,spa,swimming_pool};{beauty,sport,food,cafe,recreation,tourism};ChIJVcUwiDtFDhMRIf5EUL79ZPs;{Triq il-Kbira Sliema,SLM 1542,Malta};Europe/Malta;false;false;;;+35621333444;https://thepalacemalta.com/?utm_source=gmb&utm_medium=organic&utm_campaign=Google%20My%20Business;1742;4.5;;;false;false;false
0x130e453b897a2b0d:0x4175c3c8191fd965;8f3f304530b1574;35.9121176;14.5032206;Triq Il - Kbira;"";"";ChIJDSt6iTtFDhMRZdkfGcjDdUE;{Tas-Sliema,Malta};Europe/Malta;false;false;;;;;;;;;false;false;false
0x130e453c0a4c4729:0x7de4643603e50073;8f3f304530b4af1;35.912619;14.5026689;AX The Victoria Hotel;{hotel,bar,gym,indoor_swimming_pool,outdoor_swimming_pool,restaurant,spa};{beauty,drinks,sport,food,recreation,tourism};ChIJKUdMCjxFDhMRcwDlAzZk5H0;{Gorg Borg Olivier Street Sliema,SLM 1807,Malta};Europe/Malta;false;false;;;+35621334711;https://victoriahotel.com/?utm_source=gmb&utm_medium=organic&utm_campaign=Google%20My%20Business;1130;4.5;;;false;false;false
0x130e453caf18daf9:0xc872c4f01b05943e;8f3f304530f60cd;35.9122296;14.506416;Roma Hotel;{hotel};{tourism};ChIJ-doYrzxFDhMRPpQFG_DEcsg;{17 Ghar il - Lembi,Sliema,Malta};Europe/Malta;false;false;;;+35621318587;http://www.romahotel.eurorentals.info/;275;3.2;;;false;false;false
0x130e453e7f4e7179:0xee512ab8460d1579;8f3f304531a676a;35.9157094;14.5012659;St Patrick's Salesian School;{school};{education};ChIJeXFOfz5FDhMReRUNRrgqUe4;{St. John Bosco,Tas-Sliema SLM 1925,Malta};Europe/Malta;false;false;;;+35621339337;http://www.salesiansmalta.org/schools/st-patricks-school/;4;4.5;;;false;false;false
0x130e4537f994206d:0xe69d27055dad992;8f3f3045340270a;35.9080707;14.497942;Gzira Health Centre;{medical_center};{medical};ChIJbSCU-TdFDhMRktnaVXDSaQ4;{55 Triq Il-Flotta,Gzira,Malta};Europe/Malta;false;false;;;+35621344766;https://deputyprimeminister.gov.mt/en/phc/Pages/Health-Centres/Gzira-Health-Centre.aspx;74;2.1;;;false;true;false
0x130e4598c07492e5:0x9fa2008b94ef797a;8f3f3045341a80e;35.9071397;14.4982274;ATM (Euronet);{atm};{service};ChIJ5ZJ0wJhFDhMRennvlIsAop8;{115 Triq Ix - Xatt,Gzira,Malta};Europe/Malta;false;false;0x130e453783e6aed3:0x1b23267be41833e0;;;;4;1;;;false;false;false
0x130e45385711a5a3:0x91b3ffd06b69626e;8f3f30453420909;35.9100877;14.4977947;MaltaPost;{post_office};{service};ChIJo6URVzhFDhMRbmJpa9D_s5E;{118 Triq Manwel Dimech,Sliema,Malta};Europe/Malta;false;true;;;;https://maltapost.com/;15;3.2;;;false;true;false
0x130e453856b77019:0x126fee70618e2584;8f3f30453421d9b;35.9098992;14.4981466;Souvenirs That Don't Suck - Sliema;{gift_shop,corporate_gift_supplier,souvenir_manufacturer};{shopping,wholesaler};ChIJGXC3VjhFDhMRhCWOYXDubxI;{108 Triq Manwel Dimech Tas-Sliema,SLM 1055,Malta};Europe/Malta;false;false;;;+35679072313;http://www.souvenirsthatdontsuck.mt/;282;4.7;15;15;true;true;true
0x130e453918e77c0b:0xffd60e35f37f6cc7;8f3f30453425686;35.9100482;14.498117;Triq Manwel Dimech;"";"";ChIJC3znGDlFDhMRx2x_8zUO1v8;{Malta};Europe/Malta;false;false;;;;;;;;;false;false;false
0x130e4539a1595a67:0x4d45d767f96a2a0d;8f3f3045342d60c;35.9097549;14.499693;AM Language;{english_language_school,language_school};{education};ChIJZ1pZoTlFDhMRDSpq-WfXRU0;{299 Triq Manwel Dimech,Sliema SLM 1054,Malta};Europe/Malta;false;false;;;+35621324242;http://www.amlanguage.com/;121;4.1;;;false;true;false
0x130e453a4bcd538d:0x7defd6b68d07c2;8f3f3045346a8b3;35.909362;14.503087;Caffé Berry;{cafe,coffee_shop,coffee_store,dessert_shop,espresso_bar,organic_store,tea_house,tea_store};{cafe,drinks,groceries};ChIJjVPNSzpFDhMRwgeNttbvfQA;{San Duminku,Sliema,Malta};Europe/Malta;false;false;;1;+35699923183;http://www.caffeberry.com/;630;4.7;20;20;true;true;true
0x130e453a51440ac9:0xd173d3c4ed7b7d0a;8f3f3045346b773;35.9091576;14.5038612;Linen&Co;{souvenir_store};{shopping};ChIJyQpEUTpFDhMRCn177cTTc9E;{WG53+MG9,Sliema,Malta};Europe/Malta;false;false;;;+35627413272;;9;3.6;;;false;true;false
0x130e45398db9b42b:0x88b753e562beeeed;8f3f30453473da5;35.908832;14.50085;Pace Guest House;{guest_house};{misc};ChIJK7S5jTlFDhMR7e6-YuVTt4g;{10, Triq Sant' Agata,Tas-Sliema SLM 1015,Malta};Europe/Malta;false;false;;;+35621343357;http://www.paceguesthouse.com/;25;4.2;;;false;false;false
0x130e45c7184665cb:0x485d43d4c4a00726;8f3f30453483536;35.9051746;14.4963058;Piekarnia Mr Maxims;{bakery};{cafe};ChIJy2VGGMdFDhMRJgegxNRDXUg;{184 Triq Ix - Xatt,Gzira,Malta};Europe/Malta;false;false;;;+35627335756;https://www.facebook.com/mrmaximspastizzeria/;85;4.5;10;10;true;true;true
0x130e45256229dd63:0xba4f9dfa3c3a1be5;8f3f30453483cf1;35.9052394;14.4963657;Balance Bowl;{vegan_restaurant};{food};ChIJY90pYiVFDhMR5Rs6PPqdT7o;{Il,182 Triq Ix - Xatt,Gzira GZR 1024,Malta};Europe/Malta;false;false;;;+35627320556;http://balance-bowl.com/;478;4.8;;;true;true;true
0x130e4537dda5f62f:0xf64604d9d2e7d0c5;8f3f30453485a0a;35.906172;14.496703;Ali Baba;{lebanese_restaurant};{food};ChIJL_al3TdFDhMRxdDn0tkERvY;{Triq Sir Frederick C. Ponsonby,Gzira,Malta};Europe/Malta;false;false;;3;+35621340119;http://hanyharb.com/;624;4.7;90;180;true;true;true
0x130e4537c16a994d:0xbcf914fead075a94;8f3f30453485a4b;35.9061756;14.4968;6 Triq Sir Frederick C. Ponsonby;"";"";ChIJTZlqwTdFDhMRlFoHrf4U-bw;{Il-Gżira,Malta};Europe/Malta;false;false;;;;;;;;;false;false;false
0x130e4537c2fc688f:0x93cbef97ecaab8f9;8f3f30453485a55;35.9061875;14.4967486;Euro Guesthouse;{hotel};{tourism};ChIJj2j8wjdFDhMR-biq7Jfvy5M;{6 Triq Sir Frederick C. Ponsonby Street Gzira,GZR 1075,Malta};Europe/Malta;false;false;;;+35621311970;http://www.euroguesthousemalta.com/;118;3.9;;;false;false;false
0x130e454457aefd2f:0xb499d58d76c3d281;8f3f30453491698;35.9045235;14.4957002;the Crew Cafè Bar;{bar,coffee_shop};{cafe,drinks};ChIJL_2uV0RFDhMRgdLDdo3VmbQ;{207 Triq Ix - Xatt,Gzira GZR 1023,Malta};Europe/Malta;false;false;;;+35621332508;https://www.thecrewcafebar.com/;133;4.8;;;false;true;false
0x130e4549df14a6c5:0x1f835a23b5c778c5;8f3f30453493759;35.9042187;14.4955058;Bank of Valletta p.l.c. - Gzira Branch;{bank};{service};ChIJxaYU30lFDhMRxXjHtSNagx8;{216 Triq l-Imsida,Gzira,Malta};Europe/Malta;false;false;;;;;17;2;10;45;true;true;true
0x130e450a6e7438bd:0x5af47e8f69212d52;8f3f304534a550b;35.9072111;14.4959967;David Hardware Store;{hardware_store};{wholesaler};ChIJvTh0bgpFDhMRUi0haY9-9Fo;{76 Fleet street,Gzira,Malta};Europe/Malta;false;false;;;+35621315912;https://david-hardware-store.business.site/;6;4.5;;;false;true;false
0x130e4537befa53a7:0x9b987be2f7e89ff8;8f3f304534a8712;35.9063688;14.4973608;Subway;{sandwich_shop,fast_food_restaurant,meal_takeaway,restaurant};{food};ChIJp1P6vjdFDhMR-J_o9-J7mJs;{144, The Strand Gzira/Sliema,GZR 1026,Malta};Europe/Malta;false;false;;1;+35699626536;https://restaurants.subway.com/mt/malta/gzira/sliema/144-the-strand?utm_source=yxt-goog&utm_medium=local&utm_term=acq&utm_content=52799&utm_campaign=evergreen-2020&y_source=1_MTQ5MjM4MTMtNzE1LWxvY2F0aW9uLmdvb2dsZV93ZWJzaXRlX292ZXJyaWRl;273;3.6;;;true;true;true
0x130e4537bf348175:0x2d6311d6911c63bb;8f3f304534aa0e9;35.906052;14.4971929;Posh Turkish;{kebab_shop};{food};ChIJdYE0vzdFDhMRu2MckdYRYy0;{Triq Sir Frederick C. Ponsonby,Gzira,Malta};Europe/Malta;false;false;;2;+35621341866;https://www.facebook.com/poshturkish/;818;4.5;15;45;true;true;true
0x130e45b521f64cc9:0x67eb424136f2b37f;8f3f304534aa705;35.9059829;14.497116;Storie & Sapori - Gzira - Malta;{restaurant};{food};ChIJyUz2IbVFDhMRf7PyNkFC62c;{152, The Strand Il-Gżira GZR,Gzira,Malta};Europe/Malta;false;false;;2;+35621343143;https://www.storieesapori.com/;390;4.3;60;120;true;true;true
0x130e4501edfb329b:0x9edcdba888218c47;8f3f304534aa844;35.9062794;14.4971363;St Hotels;{hotel};{tourism};ChIJmzL77QFFDhMRR4whiKjb3J4;{143, Level-1 The Strand Gzira,GZR 1026,Malta};Europe/Malta;false;false;;;+35622641503;https://sthotelsmalta.com/;1481;3.7;;;false;false;false
0x130e4537c13d3225:0x5f2d9e77f71b403c;8f3f304534aad1a;35.9061606;14.4968511;5 Triq Sir Frederick C. Ponsonby;"";"";ChIJJTI9wTdFDhMRPEAb93eeLV8;{Il-Gżira,Malta};Europe/Malta;false;false;;;;;;;;;false;false;false
0x130e4549c98ef66f:0xa8f230d82d333463;8f3f304534b1700;35.905897;14.4953338;Gzira;"";"";ChIJb_aOyUlFDhMRYzQzLdgw8qg;{Malta};Europe/Malta;false;false;;;;;;;;;false;false;false
0x130e4540722e50a9:0x764f4ee66936f63;8f3f304534b594a;35.9066384;14.4950398;Blubay Suites by ST Hotels;{holiday_apartment_rental};{tourism};ChIJqVAuckBFDhMRY2-TZu70ZAc;{49 Sir F. Ponsonby Street Gzira,GZR 1071,Malta};Europe/Malta;false;false;;;+35622645000;https://sthotelsmalta.com/blubay-suites/;1095;3.7;;;false;false;false
0x130e4538985fd4df:0x921b535d3fbfa056;8f3f3045350550a;35.9117931;14.4960903;Venture Trading;{office_equipment_supplier,computer_repair_service,computer_service,computer_store,embossing_service,lamination_service,office_supply_store,print_shop,printer_repair_service,rubber_stamp_store};{shopping,wholesaler,service};ChIJ39RfmDhFDhMRVqC_P11TG5I;{1 Blanche Huber Street,Sliema SLM 2051,Malta};Europe/Malta;false;false;;;+35621336325;http://www.venturetrading.com/;5;4.2;;;true;true;true
0x130e4538a1f8618d:0x5bd95743128e9d4e;8f3f30453505d9e;35.9118978;14.4959736;Kwik Mart Food Store;{store};{shopping};ChIJjWH4oThFDhMRTp2OEkNX2Vs;{Blanche Huber St,Sliema,Malta};Europe/Malta;false;false;;;+35621520685;;26;4.6;;;true;true;true
0x130e453955f15617:0x8d746f41d44f8c12;8f3f304535686cb;35.9122523;14.5014234;194 Triq Rodolfu;"";"";ChIJF1bxVTlFDhMREoxP1EFvdI0;{Tas-Sliema,Malta};Europe/Malta;false;false;;;;;;;;;false;false;false
0x130e45b881ee0cb3:0x815bf9218665a089;8f3f30453569440;35.9124037;14.5018032;George's Store;{convenience_store,grocery_store,liquor_store};{groceries};ChIJswzugbhFDhMRiaBlhiH5W4E;{70 Triq Il Kbira Sliema MT SLM, 1540,70 Triq Il - Kbira,Tas-Sliema,Malta};Europe/Malta;false;false;;;+35621332174;http://george-s-store.business.site/;4;3.3;;;true;true;true
0x130e45395153d081:0xec6787b8328068d4;8f3f3045356abb1;35.9121976;14.5010732;191 Triq Rodolfu;"";"";ChIJgdBTUTlFDhMR1GiAMriHZ-w;{Tas-Sliema,Malta};Europe/Malta;false;false;;;;;;;;;false;false;false
0x130e453ea9e76921:0xc8ef369d68a69fdb;8f3f3045356d40a;35.9127864;14.5014291;Maypole Sliema;{convenience_store};{groceries};ChIJIWnnqT5FDhMR25-maJ0278g;{Triq Sir Adrian Dingli,Sliema,Malta};Europe/Malta;false;false;;;+35622581505;;41;4.5;10;10;true;true;true
0x130e453c01dd140b:0xbe52619a1532e5a;8f3f3045356d4dd;35.9127213;14.5014651;Miracle Foods Sliema;{frozen_food_store,food_products_supplier};{wholesaler,groceries};ChIJCxTdATxFDhMRWi5ToRkm5Qs;{Triq Sir Adrian Dingli,Sliema,Malta};Europe/Malta;false;false;;;+35625582465;http://www.miraclefoods.com.mt/;72;4.6;15;15;true;true;true
0x130e4525449b1c9b:0xc30141cdbc076c0b;8f3f30453620699;35.907117;14.508347;Bonavia Offset Printers;{commercial_printer,graphic_designer};{service};ChIJmxybRCVFDhMRC2wHvM1BAcM;{Tigne Seafront SLIEMA,SLM 3012,Malta};Europe/Malta;false;false;;;+35621330652;https://www.bonaviaprinters.com/;15;4.5;;;false;true;false
0x130e4525391b83bd:0x8e64cfd286b0304a;8f3f30453624c5c;35.9078215;14.507874;LABRANDA Rocca Nettuno Suites;{hotel};{tourism};ChIJvYMbOSVFDhMRSjCwhtLPZI4;{Matthew Pulis Street Sliema SLM,3052,Malta};Europe/Malta;true;false;;;+35621344932;https://www.labranda.com/rocca-nettuno-suites;383;3.5;;;false;false;false
0x130e45a7fb6c4a9f:0x27e8e3c728481e0b;8f3f3045362a85a;35.9067429;14.5095693;Mediterranean Court;{lodging};{misc};ChIJn0ps-6dFDhMRCx5IKMfj6Cc;{Tigné Seafront,Sliema,Malta};Europe/Malta;false;false;;;;;1;3;;;false;false;false
0x130e4525648b1189:0x8450119c56aa52ae;8f3f3045362ad8c;35.9066475;14.5092693;The Terrace Restaurant;{restaurant};{food};ChIJiRGLZCVFDhMRrlKqVpwRUIQ;{Tigné Seafront,Sliema,Malta};Europe/Malta;true;false;;3;+35679767838;http://www.terracerestaurant.mt/;551;4;;;false;false;false
0x130e45523fe99caf:0xc1d717cac63f41c7;8f3f3045367494a;35.907299;14.511014;Guess;{clothing_store};{shopping};ChIJr5zpP1JFDhMRx0E_xsoX18E;{Sliema,Malta};Europe/Malta;false;false;0x130e4525bc9b0d09:0x52eb525e76ed37dc;3;;https://www.guess.eu/;5;4.6;;;false;true;false
0x130e4525313284cd:0x74fab348121af42f;8f3f3045370a762;35.9080844;14.5077708;HB mini market Convinience shop;{convenience_store};{groceries};ChIJzYQyMSVFDhMRL_QaEkiz-nQ;{Triq Mattew Pulis,Sliema,Malta};Europe/Malta;false;false;;;;;2;4.5;;;false;true;false
0x130e4524d863accb:0x59b5320a6f75ae7b;8f3f3045370d1b5;35.9090531;14.5081365;Triq Tigne';"";"";ChIJy6xj2CRFDhMRe651bwoytVk;{Tas-Sliema,Malta};Europe/Malta;false;false;;;;;;;;;false;false;false
0x130e453ae07e782d:0x47a7674276c8f2cf;8f3f3045370dcec;35.9090629;14.5081045;inlingua Malta;{language_school,english_language_school};{education};ChIJLXh-4DpFDhMRz_LIdkJnp0c;{92, Tigne Towers, Tigne Street,Sliema SLM 3172,Malta};Europe/Malta;false;false;;;+35620102000;http://www.inlinguamalta.com/;39;4.4;;;false;true;false
0x130e45485d02b6f9:0x29e69b922ee2852;8f3f3045372141e;35.9100743;14.5065517;Dolce Sicilia Sliema;{coffee_shop};{cafe};ChIJ-bYCXUhFDhMRUijuIrlpngI;{SLM3172, SLM3172,12 Triq Tigne',Sliema SLM 3172,Malta};Europe/Malta;false;false;;;+35699068907;https://dolce-sicilia-slima.business.site/;226;4.6;25;25;true;true;true
0x130e453b2f554637:0xe7aa860f7c3c6c91;8f3f304537236c1;35.909563;14.506549;Gaming Trading LTD;{casino};{entertainment};ChIJN0ZVLztFDhMRkWw8fA-Gquc;{Regent House, Office 21, Bisazza Street,Tas-Sliema SLM 1640,Malta};Europe/Malta;false;false;;;+35699985129;;1;5;;;false;false;false
0x130e453b40ab3b0b:0x6c58b898162dc5b9;8f3f30453725d8c;35.9106752;14.5061366;iCentre - Apple Premium Reseller;{computer_store,computers};{shopping};ChIJCzurQDtFDhMRucUtFpi4WGw;{Tagliaferro Centre,High Street,Sliema,Malta};Europe/Malta;false;false;;;+35622564430;http://www.icentre.com.mt/;89;3.7;15;15;true;true;true
0x130e45014da2fa03:0xf743a120b9194c06;8f3f3045372a8ea;35.9095467;14.5073621;SPAR Sliema;{supermarket};{groceries};ChIJA_qiTQFFDhMRBkwZuSChQ_c;{72, Triq Tigne Sliema SLM,Malta};Europe/Malta;false;false;;1;;http://www.spar.com.mt/;345;4.4;15;15;true;true;true
0x130e453b325fde95:0xab93888cadbd0b4b;8f3f3045372e161;35.9099121;14.5070835;Tanti Opticians;{optician};{medical};ChIJld5fMjtFDhMRSwu9rYyIk6s;{Triq Tigne',Sliema,Malta};Europe/Malta;false;false;;;+35621335232;;6;3.7;;;false;false;false
0x130e4525a369b70b:0x97db04184cc49842;8f3f3045375b022;35.9075138;14.5112661;CIBO Pizzeria;{pizza_restaurant,restaurant};{food};ChIJC7dpoyVFDhMRQpjETBgE25c;{Pjazza Tigne,Sliema,Malta};Europe/Malta;false;false;0x130e4525bc9b0d09:0x52eb525e76ed37dc;2;+35679990994;http://cibo.com.mt/;771;4.3;60;90;true;true;true
0x130e4525c08821e7:0xfd04990cc39f6023;8f3f3045375b364;35.9075488;14.5115201;The Centre Office building;{corporate_office};{office};ChIJ5yGIwCVFDhMRI2CfwwyZBP0;{Pjazza Tigné Tigné Point TPO 0001,Malta};Europe/Malta;false;false;;;;;4;4.8;;;false;false;false
0x130e4525bf41cc0b:0x4991ff29c2de2b0f;8f3f3045375bacb;35.9075546;14.5115262;MeDirect;{bank};{service};ChIJC8xBvyVFDhMRDyvewin_kUk;{The Centre, Tigné Point,Tas-Sliema TPO 0001,Malta};Europe/Malta;false;false;;;+35625574400;http://www.medirect.com.mt/;12;4.2;;;true;true;true
0x130e45405cf2dafb:0xe9ee2048408a40e6;8f3f30453c16902;35.9165754;14.4939148;Haze Cafe & Restaurant;{cafe,restaurant};{food,cafe};ChIJ-9ryXEBFDhMR5kCKQEgg7uk;{George Borg Olivier St,St Julian's,Malta};Europe/Malta;false;true;;;+35621389544;;160;4;;;false;true;false
0x130e4540e9b1c3c7:0x4db679c31f606cbc;8f3f30453c84aa1;35.9147579;14.4936235;NAAR Restobar;{restaurant};{food};ChIJx8Ox6UBFDhMRvGxgH8N5tk0;{1 Triq Censu Tabone,St Julian's STJ 1017,Malta};Europe/Malta;false;false;;2;+35621373412;http://naarmalta.com/;1204;4.3;;;true;true;true
0x130e457071fdfeb9:0x2c417664ababf34b;8f3f30453c8e6c3;35.9136463;14.494817;St Julians Court Block B;{lodging};{misc};ChIJuf79cXBFDhMRS_Orq2R2QSw;{Sur Fons Street,St Julian's,Malta};Europe/Malta;false;false;;;;;;;;;false;false;false
0x130e4540b99aace9:0x81cf8ddc6f23f3e8;8f3f30453c8ed02;35.9139911;14.494445;Crudo;{cafe};{cafe};ChIJ6ayauUBFDhMR6PMjb9yNz4E;{25, Main Street, Balluta,St Julian's SLM 1802,Malta};Europe/Malta;false;false;;;+35699140837;https://www.facebook.com/pg/crudomalta/about/?ref=page_internal;313;4.5;25;60;true;true;true
0x130e4540b7047ac1:0xf4c8f155368c0be4;8f3f30453c8ed92;35.9139116;14.4943816;Balluta Pharmacy;{pharmacy};{medical};ChIJwXoEt0BFDhMR5AuMNlXxyPQ;{WF7V+HQ6,St Julian's,Malta};Europe/Malta;false;false;;;+35621317888;;10;2.2;;;true;true;true
0x130e456090292c0f:0x29ccc5b71142115;8f3f30453c8ed95;35.9139284;14.4943954;La Crema;{cafe};{cafe};ChIJDywpkGBFDhMRFSEUcVvMnAI;{Balluta Buildings,26,Main Street,St Julian's, Malta};Europe/Malta;false;false;;2;+393931141989;;397;4.7;25;60;true;true;true
0x130e45473557a267:0x45a8eaa073359f3f;8f3f30453c9c2e8;35.9133482;14.4941184;Bank of Valletta;{bank};{service};ChIJZ6JXNUdFDhMRP581c6DqqEU;{Triq Manwel Dimech,St Julian's,Malta};Europe/Malta;false;false;;;+35621312020;;34;2;10;45;true;true;true
0x130e4540e6f047e7:0x27a4bd1e0ebb30e0;8f3f30453ca2b80;35.9151979;14.4932617;EF Balluta Bay Residence;{self_catering_accommodation};{tourism};ChIJ50fw5kBFDhMR4DC7Dh69pCc;{51, Censu Tabone Street Balluta bay,St Julian's,Malta};Europe/Malta;false;false;;;+35699281700;http://www.ef.com/maltaschool;48;4.2;;;false;false;false
0x130e4540e4497d2d:0xb6e339d2e9418417;8f3f30453ca2ba1;35.9152239;14.4932651;Bocconcino Caffe and restaurant;{restaurant};{food};ChIJLX1J5EBFDhMRF4RB6dI547Y;{Main Street,St Julian's,Malta};Europe/Malta;false;false;;2;+35627370670;;500;4.2;;;true;true;true
0x130e45409b2d9497:0xcf37397c29ff4055;8f3f30453ca8aa3;35.9152246;14.4950825;Piccolo Padre Restaurant;{restaurant,italian_restaurant};{food};ChIJl5Qtm0BFDhMRVUD_KXw5N88;{194-195 Main Street,Sliema,Malta};Europe/Malta;false;false;;2;+35621344875;http://www.piccolopadre.com/;1282;4.3;90;150;true;true;true
0x130e455cfecafda5:0xc64dbf11c76fae29;8f3f30453cb36c5;35.9139946;14.492716;Malta Marriott Hotel & Spa;{hotel,wedding_venue};{tourism};ChIJpf3K_lxFDhMRKa5vxxG_TcY;{Triq Dun Anton Tabone Balluta Bay St. Julians,STJ 1017,Malta};Europe/Malta;false;false;;;+35623110000;https://www.marriott.com/hotels/travel/mlamc-malta-marriott-hotel-and-spa/?scid=bb1a189a-fec3-4d19-a255-54ba596febe2&y_source=1_NjQ4ODE5Ny03MTUtbG9jYXRpb24uZ29vZ2xlX3dlYnNpdGVfb3ZlcnJpZGU%3D;876;4.5;;;false;false;false
0x130e453f16a4fe6d:0xe10f7832f15a4762;8f3f30453cc4496;35.9146333;14.4973974;Cara's Cafè;{cafe};{cafe};ChIJbf6kFj9FDhMRYkda8TJ4D-E;{248 Tower Road,Sliema,Malta};Europe/Malta;false;true;;2;+35621343432;;385;3.8;;;false;true;false
0x130e453f15119e7b:0x285a5b4b87690247;8f3f30453cc6a23;35.9145546;14.4975252;Plaza Hotel;{hotel};{tourism};ChIJe54RFT9FDhMRRwJph0tbWig;{248 Triq It - Torri,Tas-Sliema,Malta};Europe/Malta;false;false;;;+35621341295;http://www.plazahotelsmalta.com/;1240;3.7;;;false;false;false
0x130e4596aabee79f:0xa6f38efbf42368bc;8f3f30453cf0433;35.9146664;14.4962627;Zwiit Cravings Cafe;{cafe,dessert_buffet,donut_shop,ice_cream_shop};{food,cafe};ChIJn-e-qpZFDhMRvGgj9PuO86Y;{270, Zwiit, Churros Home Tower Road Sliema,SLM 1600,Malta};Europe/Malta;false;false;;;+35699237115;https://zwiitcravings.business.site/;322;4.2;15;45;true;true;true
0x130e453f1507689d:0xc89e924417a707b;8f3f30453cf16c8;35.9145732;14.4971648;Vecchia Napoli;{italian_restaurant,pizza_delivery_service,pizza_restaurant,pizzatakeaway};{food};ChIJnWgHFT9FDhMRe3B6QSTpiQw;{Tower Road,Sliema,Malta};Europe/Malta;false;false;;2;+35621343434;http://www.vecchianapoli.com/;1473;4.1;;;true;true;true
0x130e453e28b60ec3:0x8c21be1fe716fa0d;8f3f30453cf381a;35.9145296;14.4967178;Carlton Hotel Sliema;{hotel};{tourism};ChIJww62KD5FDhMRDfoW5x--IYw;{261 Tower Road,Sliema,Malta};Europe/Malta;false;false;;;+35621315765;http://carltonhotelmalta.com/;446;3.7;;;false;false;false
0x130e456abcb56fa5:0x4159162f2d792b86;8f3f30453d0e6ec;35.9194892;14.4945772;Cavalieri Art Hotel;{hotel,bar,lido,restaurant};{recreation,food,tourism,drinks};ChIJpW-1vGpFDhMRhit5LS8WWUE;{Spinola Road San Ġiljan,STJ 3019,Malta};Europe/Malta;false;false;;;+35623180000;https://www.cavalierihotel.com/;2019;3.9;;;false;false;false
0x130e4fd6de09dd05:0xeb23aa7527424778;8f3f30453da6c53;35.9183207;14.4905278;Polish Shop Malta;{grocery_store,deli,food_producer,food_products_supplier};{food,groceries,wholesaler};ChIJBd0J3tZPDhMReEdCJ3WqI-s;{3A Lapsi Street,St Julian's,Malta};Europe/Malta;false;true;;;+35679088405;http://www.polmalta.com/;37;4.8;;;false;false;false
0x130e454225d4b261:0x551fa553b77d19a4;8f3f30453db6cc3;35.917406;14.489363;Spinola Park;{corporate_office};{office};ChIJYbLUJUJFDhMRpBl9t1OlH1U;{Triq Mikiel Ang Borg,St Julian's,Malta};Europe/Malta;false;false;;;+35627112000;http://www.spinolapark.com/;63;4.3;;;false;false;false
0x130e4f9b74bc8e0f:0xc327573ed2019f98;8f3f30456885481;35.9391914;14.4575914;Mediterraneo Marine Park;{tourist_attraction,animal_park,theme_park};{tourism,recreation};ChIJD468dJtPDhMRmJ8B0j5XJ8M;{Tul Il-Kosta Bahar ic-Caghaq,NXR 9038,Malta};Europe/Malta;false;false;;;+35621372218;https://mediterraneopark.com/;2174;4.1;210;210;true;true;true
0x130e4f99110a2a09:0x508995f71142a5c9;8f3f30456d526ae;35.9372576;14.4519509;Baħar iċ-Ċagħaq;"";"";ChIJCSoKEZlPDhMRyaVCEfeViVA;{Naxxar,Malta};Europe/Malta;false;false;;;;;;;;;false;false;false
0x130e5b4bbda270c5:0xd6abb6fc8422b7fa;8f3f3045a4cdc74;35.8873895;14.5463264;Triq il-Mulett;"";"";ChIJxXCivUtbDhMR-rcihPy2q9Y;{Ix-Xgħajra,Malta};Europe/Malta;false;false;;;;;;;;;false;false;false
0x130e5008d52669ef:0x69bd2dd80f0031c4;8f3f3045a5ad291;35.89108;14.539978;Malta Gaming Authority;{government_office};{public_service};ChIJ72km1QhQDhMRxDEAD9gtvWk;{Malta Gaming Authority Building SCM 02-03, Level 4, SmartCity Malta,Ricasoli SCM 1001,Malta};Europe/Malta;false;false;0x130e5b34c4239a9b:0x9ed95823e82f4935;;+35625469000;http://www.mga.org.mt/;33;2.1;;;false;true;false
0x130e5b4a41e2ebd5:0x17a300f6683c7fa3;8f3f3045a794405;35.8868282;14.5472391;Xgħajra;"";"";ChIJ1eviQUpbDhMRo388aPYAoxc;{Malta};Europe/Malta;false;false;;;;;;;;;false;false;false
0x130e509588fdd0ad:0xbb169f3ba10ab053;8f3f304c0064c86;35.8328488;14.4548621;Qrendi;"";"";ChIJrdD9iJVQDhMRU7AKoTufFrs;{Malta};Europe/Malta;false;false;;;;;;;;;false;false;false
0x130e50b456679b8f:0x10446cbcdb40be86;8f3f304c0685129;35.819934;14.452402;Coast @ Cassarini Restaurant;{mediterranean_restaurant};{food};ChIJj5tnVrRQDhMRhr5A27xsRBA;{Triq is-Sajjieda,Wied iz Zurrieq, il-Qrendi QRD 3043,Malta};Europe/Malta;false;false;;2;+35699207911;https://www.facebook.com/coastcassarini;505;4.6;90;180;true;true;true
0x130e5b6de6a24e33:0x4e224f2a3601dcec;8f3f304c1192c48;35.8308192;14.4749502;Zurrieq Police Station;{civil_police};{public_service};ChIJM06i5m1bDhMR7NwBNipPIk4;{Triq Santa Katerina,Zurrieq,Malta};Europe/Malta;false;false;;;;;1;5;;;false;false;false
0x130e5160c88f87af:0xf0fbb41cce24be82;8f3f304c14346d9;35.8265905;14.4708843;Nigret Self Service Grocery;{grocery_store};{groceries};ChIJr4ePyGBRDhMRgr4kzhy0-_A;{3 Triq Wied Babu,Zurrieq,Malta};Europe/Malta;false;false;;;;;12;4.5;15;15;false;true;false
0x130e5a0986ce53e1:0x6d2e0b43064fc809;8f3f304c156162e;35.8301858;14.4748296;Salus Pharmacy;{pharmacy};{medical};ChIJ4VPOhglaDhMRCchPBkMLLm0;{35/36,Misrah Ir-Repubblika,Iż-Żurrieq ZRQ 1012,Malta};Europe/Malta;false;false;;;+35621680761;https://www.pharmacy.com.mt/zurrieq/salus-pharmacy/;5;4.8;15;15;true;true;true
0x130e5a0d16c2958d:0xcf1567d8059c1c40;8f3f304c16a3872;35.8216306;14.4810648;Zurrieq;"";"";ChIJjZXCFg1aDhMRQBycBdhnFc8;{Malta};Europe/Malta;false;false;;;;;;;;;false;false;false
0x130e5a72808b3e23:0xb70cd39b5f96da83;8f3f304c1b93d12;35.8370234;14.483391;Lidl;{supermarket};{groceries};ChIJIz6LgHJaDhMRg9qWX5vTDLc;{Triq San Ġwann snc Zurrieq ZRQ,02,Malta};Europe/Malta;false;false;;;+35680062777;https://www.lidl.com.mt/;1151;4.5;30;30;true;true;true
0x130e50a920b9cddf:0x2faa2e911fbf88a0;8f3f304c394c703;35.8228519;14.4676899;Ġnien Il-Ġibjun;{park};{recreation};ChIJ3825IKlQDhMRoIi_H5Euqi8;{Triq Il-Mitħna Tal-Qaret,Zurrieq,Malta};Europe/Malta;false;false;;;;;;;;;false;false;false
0x130e50e4d17a28a5:0xcc0f7f816cbbf067;8f3f304c4113008;35.8523122;14.4333098;Tracgozo;{car_rental_agency};{automobile};ChIJpSh60eRQDhMRZ_C7bIF_D8w;{Triq Patri Guzepp Delia,Siggiewi,Malta};Europe/Malta;false;false;;;+35621563021;https://www.tracgozo.com/;;;;;false;false;false
0x130e50f0b9547d7f:0x1226f5b76766d3f0;8f3f304c4161ba0;35.8551823;14.4385715;TY's Bar Siggiewi FC;{bar};{drinks};ChIJf31UufBQDhMR8NNmZ7f1JhI;{Triq San Nikola,Siggiewi,Malta};Europe/Malta;false;false;;1;+35679092715;https://m.facebook.com/pages/Tys-bar-siggiewi/211433605534117;150;4.7;;;false;true;false
0x130e50faaefd1d75:0x2d15272505e9cdbe;8f3f304c446450d;35.8463742;14.4315746;Siggiewi;"";"";ChIJdR39rvpQDhMRvs3pBSUnFS0;{Malta};Europe/Malta;false;false;;;;;;;;;false;false;false
0x130e5092413c25cb:0xa9e1d7c2fde14aac;8f3f304c55a5b1a;35.8474756;14.453158;Police Force Academy;{school};{education};ChIJyyU8QZJQDhMRrErh_cLX4ak;{RFW3+X7V,Siggiewi,Malta};Europe/Malta;false;false;;;+35622943323;;1;5;;;false;false;false
0x130e5083500dfa79:0x54ccf5e0cb42dbee;8f3f304c562981d;35.8444143;14.4694186;Mqabba;"";"";ChIJefoNUINQDhMR7ttCy-D1zFQ;{Malta};Europe/Malta;false;false;;;;;;;;;false;false;false
0x130e5bcc05111073:0xac8d8d18f6d83fd9;8f3f304c800050b;35.8135989;14.5247463;Birżebbuġa;"";"";ChIJcxARBcxbDhMR2T_Y9hiNjaw;{Malta};Europe/Malta;false;false;;;;;;;;;false;false;false
0x130e5bcf35e6221b:0xf3099cbb7b82a970;8f3f304c8869295;35.8232675;14.5285339;Reno's Guesthouse;{guest_house};{misc};ChIJGyLmNc9bDhMRcKmCe7ucCfM;{2 Triq San Filippu,Birżebbuġa BBG 0001,Malta};Europe/Malta;false;false;;;+35699335303;https://renos-restaurant-guesthouse.business.site/;65;4.2;;;false;false;false
0x130e5a6ade4618ad:0xc06ed431ec5c3ce;8f3f304ccdb6d64;35.8362202;14.492712;Ħal Safi;"";"";ChIJrRhG3mpaDhMRzsPFHkPtBgw;{Malta};Europe/Malta;false;false;;;;;;;;;false;false;false
0x130e5bb802e9fd1b:0xc68e9ad9cbfff1d5;8f3f304cd423b55;35.829469;14.5306876;Birzebbuga Local Council;{council};{administration};ChIJG_3pArhbDhMR1fH_y9majsY;{Dar Birzebbuga,Dawret il-Qalb Mqaddsa,Birżebbuġa,Malta};Europe/Malta;false;false;;;+35621650165;http://www.birzebbugalc.com/;12;2.7;;;false;true;false
0x130e5bb7ef5b732f:0xc2664983d3c6a374;8f3f304cd42679d;35.829479;14.52957;Xtreme Fishing Shop;{fishing_store};{shopping};ChIJL3Nb77dbDhMRdKPG04NJZsI;{San Gorg,B'Bugia BBG 1023,Malta};Europe/Malta;false;false;;;+35621651043;http://www.xtremefishingmalta.com/;78;4.7;20;20;true;true;true
0x130e5bc8253833b1:0x6f5f0ea8497cd811;8f3f304cd432d24;35.8285339;14.5284885;Inspire Charity Shop Birzebbuga;{clothing_store};{shopping};ChIJsTM4JchbDhMREdh8SagOX28;{Triq Zarenu Dalli,Birżebbuġa,Malta};Europe/Malta;false;false;;;;;1;4;;;false;false;false
0x130e5bc8d2116de7:0x84636b11b5e51bb;8f3f304cd49e722;35.8241124;14.528327;Britannia Pharmacy;{pharmaceutical_company};{medical};ChIJ520R0shbDhMRu1FeG7E2Rgg;{Triq il-Bajja s-Sabiħa,Birżebbuġa,Malta};Europe/Malta;false;false;;;+35621658622;https://www.pharmacy.com.mt/birzebbuga/britannia-pharmacy/;7;3.7;;;false;true;false
0x130e5bc9c915b5df:0xce3036941905697e;8f3f304cd581af3;35.828388;14.527166;Kina Bakery & Pizzeria;{pizza_restaurant};{food};ChIJ37UVyclbDhMRfmkFGZQ2MM4;{Triq,San Guzepp,Birżebbuġa,Malta};Europe/Malta;false;false;;;+35679777795;;14;4.1;;;true;true;true
0x130e5b98fd345c79:0xbc8f292d56c056be;8f3f304cda30cc0;35.841112;14.54496;Costa Coffee - Marsaxlokk;{coffee_shop};{cafe};ChIJeVw0_ZhbDhMRvlbAVi0pj7w;{Triq iz-Zejtun,Marsaxlokk,Malta};Europe/Malta;false;false;;2;+35621653760;http://www.costamalta.com/;524;3.9;30;90;true;true;true
0x130e5b991ec984f7:0x45b7571eadc07ebe;8f3f304cda35736;35.841428;14.545364;Tartarun Restaurant;{seafood_restaurant};{food};ChIJ94TJHplbDhMRvn7ArR5Xt0U;{20 Xatt is-Sajjieda,Marsaxlokk,Malta};Europe/Malta;false;false;;3;+35621658089;http://www.tartarun.com/;705;4.6;120;180;true;true;true
0x130e5b98421c48a1:0x969e1ed7778ab19;8f3f304cdb8a60e;35.8396301;14.5437605;Police Station;{police};{public_service};ChIJoUgcQphbDhMRGat4d-3haQk;{Triq San Piju V,Marsaxlokk,Malta};Europe/Malta;false;false;;;+35622943817;;;;;;false;false;false
0x130e5b9844e0c169:0x64943ef69ddeb7bb;8f3f304cdb8b112;35.8398676;14.544211;La Nostra Padrona Restaurant;{seafood_restaurant};{food};ChIJacHgRJhbDhMRu7fenfY-lGQ;{87,Xatt is-Sajjieda,Marsaxlokk,Malta};Europe/Malta;false;false;;2;+35627667720;https://www.facebook.com/La-Nostra-Padrona-349016441910136;1093;4.3;90;180;true;true;true
0x130e5b9843f7d48d:0xc8c8f7c8bceaca3a;8f3f304cdb8b428;35.8397254;14.5441436;Pisces Restaurant Marsaxlokk;{restaurant};{food};ChIJjdT3Q5hbDhMROsrqvMj3yMg;{89, Xatt is Sajjieda,,Marsaxlokk MXK 1304,Malta};Europe/Malta;false;false;;2;+35621654956;http://www.piscesrestaurantmalta.com/;473;3.7;;;true;true;true
0x130e5b983fd5ae49:0x9f6b4f96d93d643a;8f3f304cdb8b48d;35.8396462;14.5441168;Southport Villa & Garden`s;{mediterranean_restaurant};{food};ChIJSa7VP5hbDhMROmQ92ZZPa58;{Triq is-Sajjieda,Marsaxlokk MXK 1304,Malta};Europe/Malta;false;true;;;+35627012600;;38;4.2;;;false;true;false
0x130e5ba2a7f7e2b1:0x8c8387d6ba6329d1;8f3f304cdb9ac1b;35.8389531;14.5423479;Harbour Lodge;{lodge};{misc};ChIJseL3p6JbDhMR0SljutaHg4w;{38 Harbour Lodge St. Piju Street Marsaxlokk MT MXK 1472,Marsaxlokk,Malta};Europe/Malta;false;false;;;+35699821491;http://www.harbourlodgemalta.com/;138;3.8;;;false;false;false
0x130e503ab11d88db:0x15f2c15ff9ab8f42;8f3f304e0060820;35.8930556;14.4383333;M4 Shopping Complex;{supermarket};{groceries};ChIJ24gdsTpQDhMRQo-r-V_B8hU;{VCVQ+68G,Attard,Malta};Europe/Malta;false;false;;;+35621423029;;247;4.1;15;15;true;true;true
0x130e503ab0d26417:0x620f40fb4f20b8b9;8f3f304e0060b62;35.8930628;14.4385742;Spells - Toys, Stationery & Partyware;{toy_store,gift_shop,party_store,stationery_store};{shopping};ChIJF2TSsDpQDhMRubggT_tAD2I;{M4 Shopping Complex, Triq il-Linja Attard ATD,1234,Malta};Europe/Malta;false;false;;;+35621421172;;88;4.4;20;20;true;true;true
0x130e503aaffb2f0f:0x2919dbdade8045c0;8f3f304e0060d34;35.8929861;14.4380917;M4 Pharmacy;{pharmacy};{medical};ChIJDy_7rzpQDhMRwEWA3trbGSk;{VCVQ+56W,Attard,Malta};Europe/Malta;false;false;;;+35621436531;;1;5;;;false;true;false
0x130e503ad6ca9195:0x7be4caf120d22d3f;8f3f304e006dd49;35.8930388;14.4400256;Santa Lucia Cafe;{cafe};{cafe};ChIJlZHK1jpQDhMRPy3SIPHK5Hs;{Triq Il-Linja,Attard,Malta};Europe/Malta;false;false;;2;+35621417894;http://www.cafesantalucia.com/;947;4.3;15;45;true;true;true
0x130e5155da42e313:0x8c585ceaad3432da;8f3f304e006ec12;35.8925059;14.4390553;Sam Snack Bar;{cafe};{cafe};ChIJE-NC2lVRDhMR2jI0repcWIw;{103 Triq Il-Mosta,Attard,Malta};Europe/Malta;false;false;;;+35679833477;https://m.facebook.com/samsnackbar/;8;5;;;false;true;false
0x130e5031fa7ed2f5:0x9bb6ba4136a4b38b;8f3f304e01027a1;35.893692;14.4320983;Cassia Ironmongery Ltd;{hardware_store};{wholesaler};ChIJ9dJ--jFQDhMRi7OkNkG6tps;{VCVJ+FRH,Attard,Malta};Europe/Malta;false;false;;;+35621434720;;118;4.5;10;10;true;true;true
0x130e514b8a8edb55:0xd6229bec5a221b6b;8f3f304e01086e2;35.8937002;14.4339782;El Panadero Bakery and Convenience Store;{convenience_store};{groceries};ChIJVduOiktRDhMRaxsiWuybItY;{62 Triq Il-Pitkali,Attard,Malta};Europe/Malta;false;false;;;+35627424386;https://www.facebook.com/PANADERO307/;9;2.9;10;10;true;true;true
0x130e5031da68c6a1:0x37db3da17d7da65f;8f3f304e010a959;35.8937085;14.4336315;Conimex;{home_goods_store};{wholesaler};ChIJocZo2jFQDhMRX6Z9faE92zc;{VCVM+FFJ,Attard,Malta};Europe/Malta;false;false;;;+35627415656;https://www.facebook.com/Conimex-673858069418493/;113;4;15;15;true;true;true
0x130e5031da8a9ceb:0x63cd344e9188f2e5;8f3f304e010ab6d;35.8937017;14.4338509;Exquisito;{restaurant};{food};ChIJ65yK2jFQDhMR5fKIkU40zWM;{Triq Il-Pitkali,Attard,Malta};Europe/Malta;false;false;;1;+35621417678;;44;4.5;;;false;true;false
0x130e513818772271:0x11aae597f5b169ec;8f3f304e010e614;35.8937079;14.4333321;azzopardi fish shop;{fish_store};{shopping};ChIJcSJ3GDhRDhMR7Gmx9ZflqhE;{72 Triq Il-Pitkali,Attard,Malta};Europe/Malta;false;false;;;;;;;;;false;true;false
0x130e5031dcc026bd:0x26cbdcc06148665c;8f3f304e010e78b;35.893702;14.4333135;Sports Experience;{trophy_shop};{shopping};ChIJvSbA3DFQDhMRXGZIYcDcyyY;{74 Triq Il-Pitkali,Attard ATD 2214,Malta};Europe/Malta;false;false;;;+35621438877;https://www.facebook.com/SportsExperienceMT/;4;5;;;false;true;false
0x130e503210ef4489:0xef18c797e086b0e7;8f3f304e01144b5;35.893623;14.430714;Phoenix Chinese Restaurant & Take Away;{restaurant};{food};ChIJiUTvEDJQDhMR57CG4JfHGO8;{Triq Il-Pitkali,Attard,Malta};Europe/Malta;false;false;;;+35679888858;;41;3.8;15;15;false;true;false
0x130e5106f263f32d:0x7e514bd228dbeff8;8f3f304e011462c;35.8936486;14.4310087;Ta' Dernis Snack Bar & Take Away;{restaurant};{food};ChIJLfNj8gZRDhMR-O_bKNJLUX4;{Triq Il-Pitkali,Attard,Malta};Europe/Malta;false;false;;;+35679704582;https://www.facebook.com/www.tadernissnackbar.com.mt/;32;4.3;10;45;true;true;true
0x130e5031e5564785:0x616f620b821daee1;8f3f304e01152f1;35.89372;14.4317742;Coldwell Banker Malta;{real_estate_agency};{service};ChIJhUdW5TFQDhMR4a4dggtib2E;{Real Estate Services Triq Il-Pitkali Attard,ATD 2214,Malta};Europe/Malta;false;false;;;+35623392299;https://coldwellbanker.mt/;10;4.7;;;false;true;false
0x130e512e95d01f01:0x62c8a925c81cba90;8f3f304e01156d6;35.8935685;14.4315916;crayons Stationery;{stationery_store};{shopping};ChIJAR_QlS5RDhMRkLocyCWpyGI;{Triq Il-Pitkali,Attard,Malta};Europe/Malta;false;false;;;+35679414114;;46;4.8;15;15;true;true;true
0x130e51bf1d8a8c25:0xb4e050deddca0a5b;8f3f304e011d92d;35.8937259;14.432969;Tenderfresh Butcher;{butcher_shop};{groceries};ChIJJYyKHb9RDhMRWwrK3d5Q4LQ;{Triq Il-Pitkali,Attard,Malta};Europe/Malta;false;false;;;+35621419757;;;;;;false;true;false
0x130e5031dd7b66ef:0x478fe4c1088bcd5f;8f3f304e011d94b;35.8936936;14.4330546;Misrah Kola Pharmacy;{pharmacy};{medical};ChIJ72Z73TFQDhMRX82LCMHkj0c;{Triq Il-Pitkali,Attard,Malta};Europe/Malta;false;false;;;+35621434137;https://www.pharmacy.com.mt/attard/misrah-kola-pharmacy/;5;5;15;15;true;true;true
0x130e502ffb3b126f:0xba8c31fb5b14a2dd;8f3f304e01439ae;35.894231;14.43673;APS Bank Attard;{bank,atm};{service};ChIJbxI7-y9QDhMR3aIUW_sxjLo;{Triq Santa Katarina,Attard,Malta};Europe/Malta;false;false;;;+35621226644;https://www.apsbank.com.mt/;9;2.4;15;15;true;true;true
0x130e50302c1097e7:0x3e49ec087a01b625;8f3f304e0156121;35.8936277;14.4347645;AtoZ Electronics;{electronics_store,appliance_store};{shopping};ChIJ55cQLDBQDhMRJbYBegjsST4;{70 Triq Il-Pitkali,Attard ATD 2382,Malta};Europe/Malta;false;false;;;+35627319555;https://www.atoz.com.mt/;205;4.3;15;15;true;true;true
0x130e5186b16a4071:0xe5b2593489a3c30d;8f3f304e030378d;35.8912166;14.4431923;Central Butcher;{butcher_shop};{groceries};ChIJcUBqsYZRDhMRDcOjiTRZsuU;{2 Triq Sant Anna,Attard,Malta};Europe/Malta;false;false;;;+35621435162;;;;;;false;true;false
0x130e503b7e06a499:0x9214a30de2edd508;8f3f304e031812e;35.8906369;14.443191;Attard Parish Centre;{religious_institution};{religious_building};ChIJmaQGfjtQDhMRCNXt4g2jFJI;{VCRV+774,Attard,Malta};Europe/Malta;false;false;;;;;1;4;;;false;false;false
0x130e503c837b5a0b:0xd6adb34f2475118f;8f3f304e031d600;35.8908165;14.4435573;Jalie's Coffee Cakes and Bakes;{cafe};{cafe};ChIJC1p7gzxQDhMRjxF1JE-zrdY;{Attard,Malta};Europe/Malta;false;false;;2;+35621434590;http://www.facebook.com/JaliesAttard/;855;4.4;;;true;true;true
0x130e5162b5cb6161:0xcee076f5c2326f62;8f3f304e033071c;35.8920168;14.4413861;Plan C Restobar;{restaurant};{food};ChIJYWHLtWJRDhMRYm8ywvV24M4;{4 Plan-C,Triq Ant. Schembri,Attard,Malta};Europe/Malta;false;false;;;+35621438749;;54;4.7;;;true;true;true
0x130e45573174f0c5:0x871180d1b2a9e4f2;8f3f304e0332833;35.8918961;14.4410285;PCC;{certified_public_accountant,tax_consultant};{service};ChIJxfB0MVdFDhMR8uSpstGAEYc;{34 PCC House,Triq il-Mosta,Ħ'Attard ATD 1434,Malta};Europe/Malta;false;false;;;+35621376275;http://pccadvisors.com/;3;3;;;true;true;true
0x130e503b166ce3e1:0x93aee4d9ba3f40ef;8f3f304e0332acc;35.8917924;14.4413406;Brown's St Mary Pharmacy;{pharmacy,laser_hair_removal_service};{medical};ChIJ4eNsFjtQDhMR70A_utnkrpM;{Triq Ant. Schembri,Attard,Malta};Europe/Malta;false;false;;;+35621436339;https://www.facebook.com/BrownsPharma;28;4.5;15;15;true;true;true
0x130e503b15206463:0x4441db5cb8266bba;8f3f304e0333088;35.8916772;14.4416812;BOV ATM;{atm};{service};ChIJY2QgFTtQDhMRumsmuFzbQUQ;{Triq Ir-Rand,Attard,Malta};Europe/Malta;false;false;;;+35621312020;;6;2.8;;;true;true;true
0x130e503bb605e6ad:0x11f60b4d5811d999;8f3f304e0384b80;35.889331;14.440695;Wood and Coal steak house;{steak_house,bar,gluten_free_restaurant,restaurant};{food,drinks};ChIJreYFtjtQDhMRmdkRWE0L9hE;{Triq iż-Żgħafran,Ħ'Attard ATD 9015,Malta};Europe/Malta;false;false;;2;+35679570073;https://woodandcoal.com.mt/;771;4.1;;;true;true;true
0x130e51ca8e222a8d:0xbb23bbdd89b35ba6;8f3f304e05abd92;35.8856262;14.4235473;Knisja Madonna tal-Vitorja;{church};{religious_building};ChIJjSoijspRDhMRpluzid27I7s;{VCPF+7C3,Attard,Malta};Europe/Malta;false;false;;;;;3;4.7;;;false;false;false
0x130e5029a57d12f3:0xf11cedd1c10104d3;8f3f304e094271c;35.9025078;14.433831;Triq Il-Waqqafa;"";"";ChIJ8xJ9pSlQDhMR0wQBwdHtHPE;{Mosta,Malta};Europe/Malta;false;false;;;;;;;;;false;false;false
0x130e51599cf040d7:0x35044007bca7ecf5;8f3f304e0a2b2de;35.8979516;14.4443455;St Joseph Pharmacy Lija;{organic_drug_store};{shopping};ChIJ10DwnFlRDhMR9eynvAdABDU;{164 Triq Annibale Preca,Lija,Malta};Europe/Malta;false;false;;;+35621414051;https://www.pharmacy.com.mt/lija/st-joseph-pharmacy/;7;2.9;15;15;true;true;true
0x130e50221d5aaadd:0x2af771042479ccc6;8f3f304e0a48940;35.8976627;14.4482666;Casa Antonia Nursing & Residential Home;{assisted_living_facility};{apartment};ChIJ3apaHSJQDhMRxsx5JARx9yo;{Trejqa Tal-Papa Alessandru,Balzan,Malta};Europe/Malta;false;false;;;+35621470677;https://casaantoniamalta.com/;16;4.1;;;false;false;false
0x130e5023c9f8fc83:0xdf60a0de7ea38db6;8f3f304e0a5068e;35.89665;14.445653;The President's Kitchen Garden;{cafe};{cafe};ChIJg_z4ySNQDhMRto2jft6gYN8;{St Anthony St,Attard,Malta};Europe/Malta;false;false;;1;+35621226226;https://www.facebook.com/The-Presidents-Kitchen-Garden-309394759171809/timeline/;580;4.3;60;150;true;true;true
0x130e50224b0d37f3:0x55db566e57f91fae;8f3f304e0a5e502;35.8964431;14.4463108;San Anton Palace;{historical_landmark,tourist_attraction};{tourism,art_culture};ChIJ8zcNSyJQDhMRrh_5V25W21U;{24 G.Portelli,Attard,Malta};Europe/Malta;false;false;;;;;680;4.5;45;45;true;true;true
0x130e5024e2754cfd:0x54d4dd6035665002;8f3f304e0a84163;35.895094;14.4404055;Dr. Trevor's Veterinary Clinic;{veterinarian};{medical};ChIJ_Ux14iRQDhMRAlBmNWDd1FQ;{48 Triq Kananea,Attard,Malta};Europe/Malta;false;false;;;+35621423100;;700;4.7;15;60;true;true;true
0x130e519023ff1963:0x8bce28ea65d9c34c;8f3f304e0a8488b;35.8951184;14.4403145;Pampered pets malta;{pet_groomer};{service};ChIJYxn_I5BRDhMRTMPZZeoozos;{Triq Kananea,Attard,Malta};Europe/Malta;false;false;;;+35627863824;;8;4.9;;;true;true;true
0x130e503ace8646a3:0x2a3c33769819b7d8;8f3f304e0a93555;35.8932607;14.4397108;Excel Homes Real Estate Ltd (Malta);{real_estate_agency,real_estate,real_estate_agents,real_estate_appraiser,real_estate_consultant,real_estate_rental,real_estate_rental_agency};{apartment,service};ChIJo0aGzjpQDhMR2LcZmHYzPCo;{Triq Il-Linja Ħ'Attard,ATD 1235,Malta};Europe/Malta;false;false;;;+35699451255;https://www.excel.com.mt/;53;5;;;false;true;false
0x130e51f46cb3fab3:0xc0aa52fc1e9cb3f;8f3f304e0aa5a02;35.8963906;14.4407763;CarePlus Medics;{medical_office};{medical};ChIJs_qzbPRRDhMRP8vpwS-lCgw;{Triq Kananea,Attard,Malta};Europe/Malta;false;false;;;+35679424424;;;;20;60;true;true;true
0x130e50335702be51:0x9663864c6eb34a6c;8f3f304e0ac42ca;35.8950655;14.444792;Farmer's Deli;{organic_food_store,dry_fruit_store,fruit_and_vegetable_store,health_food_store,organic_store,restaurant};{food,groceries};ChIJUb4CVzNQDhMRbEqzbkyGY5Y;{Villa Bologna, 30, Sant’Anton Street,Ħ'Attard,Malta};Europe/Malta;false;false;0x130e50236ff7bc15:0x86bb3104ace9fe10;;+35699372514;http://www.farmersdelimalta.com/;62;4.5;;;true;true;true
0x130e51f0e7a27e2b:0x100b1c40994cc786;8f3f304e0ac599d;35.8953681;14.4449836;Villa Bologna Pottery;{home_goods_store};{wholesaler};ChIJK36i5_BRDhMRhsdMmUAcCxA;{30 St Anthony St Attard,ATD 1282,Malta};Europe/Malta;false;false;;;+35699509838;https://www.facebook.com/villabolognapottery;20;5;;;false;true;false
0x130e502345fa652d:0xb1f5ad53c1c8a4bb;8f3f304e0ad3262;35.8934769;14.4442803;Offical Residence of the Ambassador of the United States of America;{embassy};{administration};ChIJLWX6RSNQDhMRu6TIwVOt9bE;{Triq Il-Linja,Attard,Malta};Europe/Malta;false;false;;;+35625614147;;4;5;;;false;false;false
0x130e4fdff8dc2339:0x3b1b154cf8bf6644;8f3f304e0b2389e;35.9013458;14.440307;Lija;"";"";ChIJOSPc-N9PDhMRRGa_-EwVGzs;{Malta};Europe/Malta;false;false;;;;;;;;;false;false;false
0x130e51c2a9d34fcd:0x2016d682d085f11e;8f3f304e0b8b210;35.8966108;14.440494;Adverteyes Ltd;{marketing_agency};{service};ChIJzU_TqcJRDhMRHvGF0ILWFiA;{4 Triq il-Muskatell,Attard,Malta};Europe/Malta;false;false;;;+35627411510;;;;;;false;true;false
0x130e51ce797976c9:0xf7f069820d710aca;8f3f304e0ca3805;35.8919504;14.4220925;Ta' Qali;"";"";ChIJyXZ5ec5RDhMRygpxDYJp8Pc;{Attard,Malta};Europe/Malta;false;false;;;;;;;;;false;false;false
0x130e51d201c33023:0x6a70badb378e8077;8f3f304e0d168ae;35.8959773;14.4201141;BOV Adventure Park;{playground,tourist_attraction};{tourism,recreation};ChIJIzDDAdJRDhMRd4CON9u6cGo;{VCWC+92X,Attard,Malta};Europe/Malta;false;false;;;+35621421151;https://msdec.gov.mt/en/Pages/PARKS/BOV-Adventure-Park.aspx;785;4.5;15;90;false;true;false
0x130e5005aba4dced:0x1140109f478eaf31;8f3f304e10057a1;35.892926;14.463837;Light Design Solutions Ltd;{lighting_store};{wholesaler};ChIJ7dykqwVQDhMRMa-OR58QQBE;{38/1 Emmanuel Schembri Street,B'Kara BKR 1810,Malta};Europe/Malta;false;false;;;+35621496843;http://www.lds.com.mt/;13;4.5;;;true;true;true
0x130e500fbc7b2df7:0xa72648b5a7fecc2;8f3f304e108e01d;35.8892723;14.4625538;GFI Software;{software_company};{service};ChIJ9y17vA9QDhMRwux_Wotkcgo;{GFI House,Territorials Street,Birkirkara, BKR 3000,Malta};Europe/Malta;false;false;;;+35622052000;http://www.gfi.com/;8;4.5;;;false;false;false
0x130e5010109e65f3:0xb9d056ee65a3c1e0;8f3f304e10b0ce6;35.890039;14.459948;PM Hobby DIY Home Solutions;{home_improvement_store};{shopping};ChIJ82WeEBBQDhMR4MGjZe5W0Lk;{Mriehel Bypass,Birkirkara,Malta};Europe/Malta;false;false;;;+35622988000;http://www.pmhobby.com.mt/;460;4.1;20;20;true;true;true
0x130e500f4699f973:0x6d7c46b9e052342a;8f3f304e10c23b1;35.8893642;14.4656119;Alberta Group;{safety_equipment_supplier,burglar_alarm_store,closed_circuit_television,fire_protection_consultant,security_system_installer,security_system_supplier};{wholesaler,service};ChIJc_mZRg9QDhMRKjRS4LlGfG0;{Central Business District, Zone 3 Triq San Gwakkin Birkirkara,CBD 3030,Malta};Europe/Malta;false;false;;;+35625490466;http://www.alberta.com.mt/;92;4.5;15;90;true;true;true
0x130e500f448dff97:0x7d6f7c562e1469b0;8f3f304e10c2aad;35.8895031;14.4656501;ESS Ltd;{electrical_equipment_supplier,electrical_wholesaler,lighting_store,lighting_wholesaler};{wholesaler};ChIJl_-NRA9QDhMRsGkULlZ8b30;{Zone 4, Central Business District,Triq San Gwakkin,Birkirkara CBD 4030,Malta};Europe/Malta;false;false;;;+35621255777;http://ess.com.mt/;119;4.6;20;20;true;true;true
0x130e5008b6e4efa9:0x81f65a0e9ac2ac70;8f3f304e10ca620;35.888904;14.467034;IMNARA LTD;{wholesaler,store};{shopping,wholesaler};ChIJqe_ktghQDhMRcKzCmg5a9oE;{TRIQ IS-SALIB TAL-MRIEHEL,MRIEHEL INDUSTRIAL ESTATE BKR 3000,Malta};Europe/Malta;false;false;;;+35621499284;http://www.imnara.com/;3;5;;;false;true;false
